Report ID,Arrest Date,Time,Area ID,Area Name,Reporting District,Age,Sex Code,Descent Code,Charge Group Code,Charge Group Description,Arrest Type Code,Charge,Charge Description,Address,Cross Street,Location,Lat,Long
190325212,11/23/2019,1315,3,Southwest,328,21,F,W,17,Liquor Laws,I,25620BP,OPEN ALCOHOLIC BEV IN PUBLIC PARK/PLACE,28TH                         ST,E  UNIVERSITY,,34.0278,-118.281
5809994,11/27/2019,2100,18,Southeast,1801,20,M,H,22,Driving Under Influence,M,23152(A)VC,DRUNK DRIVING ALCOHOL/DRUGS,FIGUEROA,MANCHESTER,,33.9601,-118.2827
190818921,11/27/2019,1645,8,West LA,893,42,M,W,18,Drunkeness,M,41.27CLAMC,DRINKING IN PUBLIC,SEPULVEDA                    BL,PEARL,,34.0344,-118.4336
5672540,11/24/2019,356,15,N Hollywood,1547,30,M,H,22,Driving Under Influence,M,23152(A)VC,DRUNK DRIVING ALCOHOL/DRUGS,BURBANK,HOLLYWOOD                    FY,,34.1673,-118.3816
5806232,11/23/2019,149,2,Rampart,239,25,M,H,22,Driving Under Influence,M,23152(A)VC,DRUNK DRIVING ALCOHOL/DRUGS,WESTERN                      AV,101 SOUTHBOUND,,34.0609,-118.2535
190112235,4/26/2019,1505,1,Central,152,57,M,H,18,Drunkeness,M,41.27CLAMC,DRINKING IN PUBLIC,6TH,HILL,,34.0481,-118.2542
190112276,4/27/2019,2215,1,Central,163,35,M,H,17,Liquor Laws,I,25620ABP,DRINKING ALCOHOL,7TH,FLOWER,,34.0438,-118.2547
190210388,4/22/2019,1655,2,Rampart,245,20,M,H,17,Liquor Laws,I,25620BP,OPEN ALCOHOLIC BEV IN PUBLIC PARK/PLACE,2200 W  6TH                          ST,,,34.0601,-118.2761
190210389,4/22/2019,1655,2,Rampart,245,21,M,H,17,Liquor Laws,I,25620BP,OPEN ALCOHOLIC BEV IN PUBLIC PARK/PLACE,2200 W  6TH                          ST,,,34.0601,-118.2761
190210391,4/23/2019,1740,2,Rampart,245,54,M,B,17,Liquor Laws,I,25620BP,OPEN ALCOHOLIC BEV IN PUBLIC PARK/PLACE,2200 W  6TH                          ST,,,34.0601,-118.2761
190210392,4/23/2019,1735,2,Rampart,245,28,M,B,17,Liquor Laws,I,25620BP,OPEN ALCOHOLIC BEV IN PUBLIC PARK/PLACE,2200 W  6TH                          ST,,,34.0601,-118.2761
190210394,4/23/2019,1735,2,Rampart,245,48,F,B,17,Liquor Laws,I,25620BP,OPEN ALCOHOLIC BEV IN PUBLIC PARK/PLACE,2200 W  6TH                          ST,,,34.0601,-118.2761
190210396,4/25/2019,1720,2,Rampart,245,34,M,W,17,Liquor Laws,I,25620BP,OPEN ALCOHOLIC BEV IN PUBLIC PARK/PLACE,2200 W  6TH                          ST,,,34.0601,-118.2761
190210398,4/25/2019,1700,2,Rampart,251,27,F,B,17,Liquor Laws,I,25620BP,OPEN ALCOHOLIC BEV IN PUBLIC PARK/PLACE,CORONADO,7TH                          ST,,34.059,-118.2824
190210400,4/25/2019,1700,2,Rampart,245,33,M,B,17,Liquor Laws,I,25620BP,OPEN ALCOHOLIC BEV IN PUBLIC PARK/PLACE,600 S  CORONADO                     ST,,,34.062,-118.2804
190210401,4/25/2019,1620,2,Rampart,245,62,M,H,17,Liquor Laws,I,25620BP,OPEN ALCOHOLIC BEV IN PUBLIC PARK/PLACE,2200 W  6TH                          ST,,,34.0601,-118.2761
190210402,4/27/2019,2125,2,Rampart,245,56,M,B,17,Liquor Laws,I,25620BP,OPEN ALCOHOLIC BEV IN PUBLIC PARK/PLACE,2200 W  6TH                          ST,,,34.0601,-118.2761
190210451,4/27/2019,1440,2,Rampart,271,31,M,H,17,Liquor Laws,I,25620ABP,DRINKING ALCOHOL,OLYMPIC,PARK VIEW,,34.0524,-118.2835
190210452,4/27/2019,1530,2,Rampart,256,29,M,H,17,Liquor Laws,I,25620ABP,DRINKING ALCOHOL,600    LITTLE                       ST,,,34.0551,-118.2727
190210453,4/27/2019,1440,2,Rampart,271,36,M,H,17,Liquor Laws,I,25620ABP,DRINKING ALCOHOL,OLYMPIC,PARK VIEW,,34.0524,-118.2835
190210454,4/27/2019,1530,2,Rampart,256,45,M,H,17,Liquor Laws,I,25620ABP,DRINKING ALCOHOL,600    LITTLE                       ST,,,34.0551,-118.2727
190409105,4/26/2019,1640,4,Hollenbeck,426,26,F,H,17,Liquor Laws,M,25658(A)BP,SALE/ETC OF ALCOHOLIC BEVERAGE TO MINOR,4900    HUNTINGTON                   DR,,,34.0867,-118.1768
190409217,4/27/2019,1645,4,Hollenbeck,421,68,M,H,18,Drunkeness,M,41.27(C)LAM,DRINKING IN PUBLIC,BROADWAY,DALY                         ST,,34.0736,-118.2156
190910041,4/15/2019,1500,9,Van Nuys,943,30,M,H,17,Liquor Laws,M,25620BP,OPEN ALCOHOLIC BEV IN PUBLIC PARK/PLACE,TYRONE                       AV,BURBANK                      BL,,34.1721,-118.4443
190910048,4/27/2019,1140,9,Van Nuys,984,42,M,O,18,Drunkeness,M,41.27(C)LAM,DRINKING IN PUBLIC,VENTURA                      BL,CEDROS                       AV,,34.1517,-118.4531
190910049,4/27/2019,1445,9,Van Nuys,941,29,M,O,17,Liquor Laws,M,25620BP,OPEN ALCOHOLIC BEV IN PUBLIC PARK/PLACE,15200    MARTHA                       ST,,,34.1731,-118.464
191008773,4/20/2019,1830,10,West Valley,1049,28,M,H,22,Driving Under Influence,M,23152(A)VC,DRUNK DRIVING ALCOHOL/DRUGS,BURBANK                      BL,WOODLEY                      AV,,34.1717,-118.4757
191909578,4/16/2019,2145,19,Mission,1971,18,M,H,17,Liquor Laws,M,25662BP,MINOR POSSESS ALCOHOL,9000    ORION                        AV,,,34.2338,-118.472
191909579,4/18/2019,2120,19,Mission,1966,35,M,H,18,Drunkeness,M,41.27(C)LAM,DRINKING IN PUBLIC,VAN NUYS,PLUMMER,,34.2427,-118.4502
191909581,4/18/2019,2020,19,Mission,1966,32,M,H,18,Drunkeness,M,41.27(C)LAM,DRINKING IN PUBLIC,PLUMMER,VAN NUYS,,34.2427,-118.4502
191909582,4/18/2019,2100,19,Mission,1966,32,M,H,18,Drunkeness,M,41.27(C)LAM,DRINKING IN PUBLIC,PLUMMER,VAN NUYS,,34.2427,-118.4502
191909583,4/18/2019,2051,19,Mission,1966,29,M,H,18,Drunkeness,M,41.27(C)LAM,DRINKING IN PUBLIC,VAN NUYS,PLUMMER,,34.2427,-118.4502
191909588,4/26/2019,1720,19,Mission,1982,48,M,H,18,Drunkeness,M,41.27(C)LAM,DRINKING IN PUBLIC,PARTHENIA,COLUMBUS,,34.2288,-118.4655
191909589,4/26/2019,1825,19,Mission,1985,49,M,W,18,Drunkeness,M,41.27(C)LAM,DRINKING IN PUBLIC,VAN NUYS,ROSCOE,,34.2216,-118.4488
191909590,4/25/2019,2145,19,Mission,1984,21,M,H,18,Drunkeness,M,41.27(C)LAM,DRINKING IN PUBLIC,KESTER,PARTHENIA,,34.2282,-118.4575
191909591,4/25/2019,2145,19,Mission,1984,21,M,H,18,Drunkeness,M,41.27(C)LAM,DRINKING IN PUBLIC,KESTER,PARTHENIA,,34.2282,-118.4575
192109242,4/22/2019,1510,21,Topanga,2155,39,M,W,17,Liquor Laws,M,25620BP,OPEN ALCOHOLIC BEV IN PUBLIC PARK/PLACE,6000    TOPANGA CANYON               BL,,,34.1828,-118.6102
5511360,1/3/2019,116,7,Wilshire,717,39,M,B,22,Driving Under Influence,F,23153(A)VC,DUI ALCOHOL CAUSING INJURY,400 N  LA BREA                      AV,,,34.0783,-118.3441
5523557,1/18/2019,150,7,Wilshire,784,35,M,B,22,Driving Under Influence,F,23153(A)VC,DUI ALCOHOL CAUSING INJURY,WASHINGTON                   BL,REDONDO                      ST,,34.0412,-118.3528
5551051,2/19/2019,1130,1,Central,122,38,F,W,22,Driving Under Influence,M,23152(B)VC,DRUNK DRIVING .10 OR ABOVE,100 N  HILL                         ST,,,34.0572,-118.2481
5574862,3/16/2019,1150,13,Newton,1353,19,M,H,22,Driving Under Influence,F,23153(A)VC,DUI ALCOHOL CAUSING INJURY,CENTRAL,VERNON,,34.0039,-118.2565
5579475,3/21/2019,2135,17,Devonshire,1755,25,M,H,22,Driving Under Influence,F,23153(A)VC,DUI ALCOHOL CAUSING INJURY,DEVONSHIRE,LINDLEY,,34.2573,-118.5273
5583313,3/26/2019,2140,10,West Valley,1024,33,F,H,22,Driving Under Influence,F,23153(A)VC,DUI ALCOHOL CAUSING INJURY,VANOWEN,GEYSER,,34.1939,-118.5423
5583360,3/26/2019,2345,17,Devonshire,1792,35,M,H,22,Driving Under Influence,M,23152(A)VC,DRUNK DRIVING ALCOHOL/DRUGS,PARTHENIA,CORBIN,,34.2282,-118.5623
5585437,3/29/2019,50,6,Hollywood,627,35,M,H,16,Narcotic Drug Laws,F,4573PC,BRING/SEND NARC/CONT SUBS/ALCOHOL TO JAIL,WESTERN,MARATHON,,34.1227,-118.3181
5586037,3/29/2019,1855,5,Harbor,555,39,F,H,22,Driving Under Influence,F,23153(A)VC,DUI ALCOHOL CAUSING INJURY,900 W  SUMMERLAND                   AV,,,33.7476,-118.2967
5588404,4/1/2019,1705,9,Van Nuys,929,17,M,H,18,Drunkeness,M,647(F)PC,"DISORD CONDUCT:UI/DRUG, ALCOHOL",KITTRIDGE,GREENBUSH,,34.1903,-118.4257
5592832,4/6/2019,35,11,Northeast,1144,61,M,H,22,Driving Under Influence,F,23153(A)VC,DUI ALCOHOL CAUSING INJURY,HYPERION,TRACY,,34.1041,-118.2734
5593430,4/6/2019,1650,12,77th Street,1253,58,M,B,22,Driving Under Influence,F,23153(A)VC,DUI ALCOHOL CAUSING INJURY,WESTERN,76TH,,33.9709,-118.309
5594389,4/8/2019,135,17,Devonshire,1723,38,F,H,22,Driving Under Influence,F,23550(A)VC,DUI W/PRIOR SPEC CONVICTIONS,RINALDI,DE SOTO,,34.27,-118.5886
5594093,4/7/2019,2015,1,Central,182,35,F,B,16,Narcotic Drug Laws,F,4573PC,BRING/SEND NARC/CONT SUBS/ALCOHOL TO JAIL,OLIVE,PICO                         BL,,34.0383,-118.2633
5599838,4/13/2019,1700,9,Van Nuys,971,23,M,W,22,Driving Under Influence,F,23153(A)VC,DUI ALCOHOL CAUSING INJURY,VENTURA                      FY,SEPULVEDA                    BL,,34.1593,-118.4662
5600614,4/14/2019,1740,9,Van Nuys,915,22,M,H,22,Driving Under Influence,F,23153(A)VC,DUI ALCOHOL CAUSING INJURY,SHERMAN,TYRONE,,34.2012,-118.4444
5600704,4/14/2019,1843,17,Devonshire,1787,31,F,W,22,Driving Under Influence,F,23153(A)VC,DUI ALCOHOL CAUSING INJURY,NORDHOFF,ZELZAH,,34.2357,-118.5231
5600903,4/14/2019,2235,4,Hollenbeck,443,40,M,H,22,Driving Under Influence,F,23153(A)VC,DUI ALCOHOL CAUSING INJURY,1900    MARENGO                      ST,,,34.0609,-118.2052
5604503,4/18/2019,1955,10,West Valley,1003,32,M,H,22,Driving Under Influence,F,23153(A)VC,DUI ALCOHOL CAUSING INJURY,YOLANDA,KESWICK,,34.2102,-118.5404
5604600,4/18/2019,2252,12,77th Street,1253,17,M,H,22,Driving Under Influence,M,23152(F)VC,DUI OF ANY DRUG,FLORENCE,LA SALLE,,33.9746,-118.3057
5605790,4/19/2019,2345,3,Southwest,337,48,M,H,16,Narcotic Drug Laws,F,4573PC,BRING/SEND NARC/CONT SUBS/ALCOHOL TO JAIL,2900 S  NORMANDIE                    AV,,,34.0291,-118.3002
5606530,4/20/2019,1930,6,Hollywood,647,17,M,H,22,Driving Under Influence,M,23152(F)VC,DUI OF ANY DRUG,GOWER,HOLLYWOOD                    BL,,34.1017,-118.3224
5607296,4/22/2019,320,10,West Valley,1028,22,F,W,22,Driving Under Influence,M,23152(A)VC,DRUNK DRIVING ALCOHOL/DRUGS,BALBOA                       BL,VENTURA                      FY,,34.1939,-118.4967
5608518,4/23/2019,1000,11,Northeast,1181,37,M,H,22,Driving Under Influence,M,23153(B)VC,DUI .08 ALCOHOL CAUSING INJURY,SUNSET                       BL,ALVARADO                     ST,,34.0776,-118.2635
5609743,4/24/2019,1540,1,Central,127,52,M,H,22,Driving Under Influence,M,23152(B)VC,DRUNK DRIVING .10 OR ABOVE,100 N  LOS ANGELES                  ST,,,34.0515,-118.2424
5610833,4/25/2019,1715,3,Southwest,363,46,M,B,22,Driving Under Influence,M,23152(A)VC,DRUNK DRIVING ALCOHOL/DRUGS,CRENSHAW                     BL,39TH                         ST,,34.0146,-118.3354
5610953,4/25/2019,2120,19,Mission,1961,23,M,H,22,Driving Under Influence,M,23152(F)VC,DUI OF ANY DRUG,SEPULVEDA,PLUMMER,,34.2428,-118.4675
5611184,4/25/2019,1950,1,Central,192,47,M,H,22,Driving Under Influence,M,23152(A)VC,DRUNK DRIVING ALCOHOL/DRUGS,SANTA MONICA                 FY,FIGUEROA,,34.0367,-118.2706
5611305,4/25/2019,2320,16,Foothill,1667,25,M,W,22,Driving Under Influence,M,23152(F)VC,DUI OF ANY DRUG,9900    SUNLAND                      BL,,,34.2498,-118.3468
5611342,4/26/2019,105,16,Foothill,1611,43,F,H,22,Driving Under Influence,M,23152(A)VC,DRUNK DRIVING ALCOHOL/DRUGS,11600    HERRICK                      AV,,,34.281,-118.4252
5611925,4/26/2019,1845,14,Pacific,1453,69,M,W,22,Driving Under Influence,M,23152(A)VC,DRUNK DRIVING ALCOHOL/DRUGS,GLENCOE                      AV,WASHINGTON                   BL,,33.9914,-118.4442
5611953,4/26/2019,1945,18,Southeast,1844,33,M,H,22,Driving Under Influence,M,23152(B)VC,DRUNK DRIVING .10 OR ABOVE,AVALON                       BL,109TH                        ST,,33.9373,-118.2652
5611987,4/26/2019,2200,9,Van Nuys,984,37,M,H,22,Driving Under Influence,M,23152(A)VC,DRUNK DRIVING ALCOHOL/DRUGS,VENTURA                      BL,CEDROS                       AV,,34.1517,-118.4531
5612028,4/26/2019,2225,11,Northeast,1177,39,M,H,22,Driving Under Influence,M,23152(F)VC,DUI OF ANY DRUG,FIGUEROA,CYPRESS,,34.0864,-118.219
5612039,4/26/2019,2348,20,Olympic,2024,34,M,H,22,Driving Under Influence,M,23152(A)VC,DRUNK DRIVING ALCOHOL/DRUGS,WESTERN,6TH,,34.0635,-118.3091
5612262,4/26/2019,2335,20,Olympic,2024,42,M,H,22,Driving Under Influence,M,23152(F)VC,DUI OF ANY DRUG,WESTERN,6TH,,34.0635,-118.3091
5612280,4/27/2019,1,1,Central,162,34,F,H,22,Driving Under Influence,M,23152(F)VC,DUI OF ANY DRUG,FIGUEROA,7TH,,34.0494,-118.2599
5612290,4/27/2019,25,20,Olympic,2024,19,M,H,22,Driving Under Influence,M,23152(F)VC,DUI OF ANY DRUG,WESTERN,6TH,,34.0635,-118.3091
5612283,4/26/2019,2100,4,Hollenbeck,466,34,F,H,16,Narcotic Drug Laws,F,4573PC,BRING/SEND NARC/CONT SUBS/ALCOHOL TO JAIL,1ST                          ST,MOTT                         ST,,34.0421,-118.206
5612391,4/27/2019,306,11,Northeast,1124,30,M,H,22,Driving Under Influence,M,23152(A)VC,DRUNK DRIVING ALCOHOL/DRUGS,FLETCHER,LARGA,,34.1179,-118.2451
5612411,4/27/2019,230,6,Hollywood,645,37,M,H,22,Driving Under Influence,M,23152(A)VC,DRUNK DRIVING ALCOHOL/DRUGS,1700 N  HIGHLAND                     AV,,,34.1006,-118.3417
5612412,4/27/2019,345,7,Wilshire,711,23,F,W,22,Driving Under Influence,M,23152(A)VC,DRUNK DRIVING ALCOHOL/DRUGS,KINGS                        RD,ROSEWOOD                     AV,,34.0802,-118.3722
5612487,4/27/2019,830,10,West Valley,1021,64,M,H,22,Driving Under Influence,M,23152(A)VC,DRUNK DRIVING ALCOHOL/DRUGS,CORBIN                       AV,SHERMAN                      WY,,34.201,-118.5623
5612415,4/27/2019,305,21,Topanga,2118,36,F,W,22,Driving Under Influence,F,23153(A)VC,DUI ALCOHOL CAUSING INJURY,8200    WINNETKA                     AV,,,34.2162,-118.5799
5612724,4/27/2019,1815,12,77th Street,1243,59,M,B,22,Driving Under Influence,M,23152(A)VC,DRUNK DRIVING ALCOHOL/DRUGS,HARVARD,64TH,,33.9814,-118.3068
5612746,4/27/2019,1850,13,Newton,1347,39,M,H,22,Driving Under Influence,M,23152(A)VC,DRUNK DRIVING ALCOHOL/DRUGS,VERNON,LONG BEACH,,34.0039,-118.2434
5612766,4/27/2019,1902,20,Olympic,2076,31,M,H,22,Driving Under Influence,M,21200.5VC,DUI ALCOHOL/DRUGS ON BICYCLE,PICO,FEDORA,,34.0472,-118.2979
5612770,4/27/2019,1920,11,Northeast,1127,27,M,H,22,Driving Under Influence,M,23152(A)VC,DRUNK DRIVING ALCOHOL/DRUGS,5700    FAYETTE                      ST,,,34.1199,-118.1935
5612773,4/27/2019,1910,13,Newton,1393,37,M,H,22,Driving Under Influence,F,23153(A)VC,DUI ALCOHOL CAUSING INJURY,64TH                         ST,MAIN,,33.9814,-118.2739
5612795,4/27/2019,2040,21,Topanga,2128,45,M,H,22,Driving Under Influence,M,23152(A)VC,DRUNK DRIVING ALCOHOL/DRUGS,ROSCOE,DE SOTO,,34.212,-118.5754
5612820,4/27/2019,2100,18,Southeast,1842,29,M,H,22,Driving Under Influence,M,23152(A)VC,DRUNK DRIVING ALCOHOL/DRUGS,IMPERIAL,BROADWAY,,33.931,-118.2783
5612823,4/27/2019,1945,18,Southeast,1824,18,M,H,22,Driving Under Influence,M,23152(F)VC,DUI OF ANY DRUG,CENTRAL,92ND                         ST,,33.947,-118.2594
5612832,4/27/2019,2036,18,Southeast,1804,21,M,H,22,Driving Under Influence,M,23152(F)VC,DUI OF ANY DRUG,88TH                         ST,CENTRAL,,33.9574,-118.2564
5612872,4/27/2019,2148,13,Newton,1309,40,M,O,22,Driving Under Influence,M,23152(A)VC,DRUNK DRIVING ALCOHOL/DRUGS,BOYLE,SANTA MONICA                 FY,,34.0241,-118.232
5612875,4/27/2019,2235,21,Topanga,2115,50,M,H,22,Driving Under Influence,M,23152(A)VC,DRUNK DRIVING ALCOHOL/DRUGS,8200    TOPANGA CANYON               BL,,,34.2176,-118.606
5612876,4/27/2019,2130,20,Olympic,2033,26,M,H,22,Driving Under Influence,M,23152(F)VC,DUI OF ANY DRUG,WESTERN                      AV,8TH                          ST,,34.0581,-118.3091
5612877,4/27/2019,2154,20,Olympic,2062,21,M,B,22,Driving Under Influence,M,23152(F)VC,DUI OF ANY DRUG,ARLINGTON,OLYMPIC,,34.0526,-118.3163
5612882,4/27/2019,2110,15,N Hollywood,1523,43,M,H,22,Driving Under Influence,M,23152(A)VC,DRUNK DRIVING ALCOHOL/DRUGS,6200    ALCOVE                       AV,,,34.1831,-118.4128
5612891,4/27/2019,2211,21,Topanga,2114,25,M,H,22,Driving Under Influence,M,23152(A)VC,DRUNK DRIVING ALCOHOL/DRUGS,ROSCOE,TOPANGA CANYON,,34.2197,-118.606
5618393,5/3/2019,232,10,West Valley,1047,22,M,H,22,Driving Under Influence,M,23152(B)VC,DRUNK DRIVING .10 OR ABOVE,WHITE OAK                    AV,VENTURA                      FY,,34.1713,-118.5185
5612976,4/28/2019,56,9,Van Nuys,974,60,M,O,22,Driving Under Influence,M,23152(A)VC,DRUNK DRIVING ALCOHOL/DRUGS,VAN NUYS                     BL,VENTURA                      FY,,34.1569,-118.4487
190210698,5/1/2019,1740,2,Rampart,245,32,M,H,17,Liquor Laws,I,25620(A)BP,DRINKING ALCOHOL,2200 W  6TH                          ST,,,34.0601,-118.2761
5619444,5/4/2019,50,1,Central,162,20,M,W,22,Driving Under Influence,M,23152(F)VC,DUI OF ANY DRUG,9TH                          ST,FIGUEROA,,34.0462,-118.2628
190112342,4/28/2019,1808,1,Central,163,49,M,H,17,Liquor Laws,I,25620ABP,DRINKING ALCOHOL,8TH,BROADWAY,,34.0445,-118.2558
5618237,5/2/2019,2050,12,77th Street,1265,20,F,H,22,Driving Under Influence,M,23152(F)VC,DUI OF ANY DRUG,MANCHESTER,BUDLONG,,33.96,-118.2959
5617068,5/1/2019,2155,21,Topanga,2136,23,M,H,22,Driving Under Influence,F,23152(A)VC,DUI ALCOHOL/DRUG W/PRIORS,SHERMAN                      WY,DEERING,,34.201,-118.5967
5613866,4/28/2019,2340,19,Mission,1977,32,M,H,22,Driving Under Influence,M,23152(A)VC,DRUNK DRIVING ALCOHOL/DRUGS,WOODMAN,CHASE,,34.228,-118.4344
5618214,5/2/2019,2055,12,77th Street,1265,56,M,H,22,Driving Under Influence,M,23152(A)VC,DRUNK DRIVING ALCOHOL/DRUGS,MANCHESTER,BUDLONG,,33.96,-118.2959
191411311,4/28/2019,1645,14,Pacific,1431,31,M,W,17,Liquor Laws,I,25620(A)BP,DRINKING ALCOHOL,OCEAN FRONT                  WK,HORIZON,,33.988,-118.4745
5618300,5/2/2019,2250,12,77th Street,1257,22,M,H,22,Driving Under Influence,M,23152(F)VC,DUI OF ANY DRUG,FIGUEROA,77,,33.9693,-118.285
5617455,5/2/2019,111,3,Southwest,329,24,M,H,22,Driving Under Influence,M,23152(A)VC,DRUNK DRIVING ALCOHOL/DRUGS,2ND                          ST,BEAUDRY                      AV,,34.0246,-118.2772
190112485,4/25/2019,2005,1,Central,156,57,M,B,17,Liquor Laws,M,25620BP,OPEN ALCOHOLIC BEV IN PUBLIC PARK/PLACE,5TH                          ST,SAN JULIAN,,34.0446,-118.245
5613199,4/28/2019,448,15,N Hollywood,1565,39,M,H,22,Driving Under Influence,M,23152(A)VC,DRUNK DRIVING ALCOHOL/DRUGS,RIVERSIDE                    AV,COLDWATER CA                 AV,,34.1493,-118.3759
190112665,5/1/2019,1503,1,Central,158,54,M,B,17,Liquor Laws,I,25620ABP,DRINKING ALCOHOL,6TH,GLADYS,,34.0403,-118.2421
5615096,4/30/2019,13,19,Mission,1924,26,F,H,22,Driving Under Influence,M,23152(A)VC,DRUNK DRIVING ALCOHOL/DRUGS,SAN FERNANDO,LAUREL CANYON,,34.2905,-118.4581
5613915,4/28/2019,2213,2,Rampart,219,30,M,H,22,Driving Under Influence,M,23152(A)VC,DRUNK DRIVING ALCOHOL/DRUGS,HOLLYWOOD                    FY,GLENDALE                     AV,,34.0677,-118.252
190809301,5/3/2019,1610,8,West LA,853,65,M,B,18,Drunkeness,M,41.27(C)LAM,DRINKING IN PUBLIC,SANTA MONICA,SAWTELLE,,34.0462,-118.4496
190112600,5/1/2019,1600,1,Central,166,60,M,B,17,Liquor Laws,I,25620ABP,DRINKING ALCOHOL,6TH,SAN JULIAN,,34.0428,-118.2461
5619386,5/3/2019,2055,21,Topanga,2134,75,M,B,22,Driving Under Influence,M,23152(A)VC,DRUNK DRIVING ALCOHOL/DRUGS,SHERMAN                      WY,SHOUP                        AV,,34.201,-118.6147
5615082,4/30/2019,36,14,Pacific,1406,37,M,B,22,Driving Under Influence,M,23152(A)VC,DRUNK DRIVING ALCOHOL/DRUGS,CULVER                       BL,MARINA                       FY,,34.024,-118.409
5613493,4/28/2019,1140,9,Van Nuys,935,22,M,H,22,Driving Under Influence,M,23152(A)VC,DRUNK DRIVING ALCOHOL/DRUGS,14400    ERWIN                        ST,,,34.1837,-118.4465
5614052,4/29/2019,910,9,Van Nuys,935,47,M,O,22,Driving Under Influence,M,23152(A)VC,DRUNK DRIVING ALCOHOL/DRUGS,14400    ERWIN                        ST,,,34.1837,-118.4465
5618907,5/3/2019,1235,13,Newton,1323,24,M,H,22,Driving Under Influence,M,23152(B)VC,DRUNK DRIVING .10 OR ABOVE,TRINITY,25TH                         ST,,34.0219,-118.2571
5613560,4/28/2019,1135,4,Hollenbeck,453,31,M,H,22,Driving Under Influence,M,23152(A)VC,DRUNK DRIVING ALCOHOL/DRUGS,1600    BRIDGE                       ST,,,34.0527,-118.2183
190112595,4/30/2019,1625,1,Central,162,27,M,H,17,Liquor Laws,I,25620ABP,DRINKING ALCOHOL,800 W  7TH                          ST,,,34.0487,-118.2588
5618089,5/2/2019,1720,6,Hollywood,600,54,M,H,22,Driving Under Influence,M,21200.5VC,DUI ALCOHOL/DRUGS ON BICYCLE,PICO,ALVARADO,,34.0461,-118.2801
190112490,4/25/2019,1450,1,Central,158,60,M,H,17,Liquor Laws,M,25620BP,OPEN ALCOHOLIC BEV IN PUBLIC PARK/PLACE,7TH                          ST,GLADYS,,34.0387,-118.2439
5618255,5/2/2019,2213,12,77th Street,1265,60,F,B,22,Driving Under Influence,M,23152(A)VC,DRUNK DRIVING ALCOHOL/DRUGS,MANCHESTER,BUDLONG,,33.96,-118.2959
5615110,4/30/2019,50,3,Southwest,329,49,M,H,22,Driving Under Influence,M,23152(A)VC,DRUNK DRIVING ALCOHOL/DRUGS,FLOWER                       ST,29TH                         ST,,34.0253,-118.2763
5613163,4/28/2019,200,15,N Hollywood,1569,34,M,H,22,Driving Under Influence,M,23152(A)VC,DRUNK DRIVING ALCOHOL/DRUGS,10200    RIVERSIDE                    DR,,,34.1522,-118.3527
5613205,4/28/2019,425,3,Southwest,309,31,M,H,22,Driving Under Influence,M,23152(A)VC,DRUNK DRIVING ALCOHOL/DRUGS,W  23RD                         ST,FIGUEROA,,34.0372,-118.276
5614169,4/29/2019,1200,13,Newton,1372,52,M,H,16,Narcotic Drug Laws,F,4573PC,BRING/SEND NARC/CONT SUBS/ALCOHOL TO JAIL,200 E  58TH                         ST,,,33.9898,-118.272
5619459,5/4/2019,6,1,Central,162,32,F,O,22,Driving Under Influence,M,23152(A)VC,DRUNK DRIVING ALCOHOL/DRUGS,9TH                          ST,FIGUEROA,,34.0462,-118.2628
5415166,4/28/2019,140,19,Mission,1981,40,M,H,22,Driving Under Influence,M,23152(A)VC,DRUNK DRIVING ALCOHOL/DRUGS,8800    LANGDON                      AV,,,34.2301,-118.4698
191109839,4/29/2019,1730,11,Northeast,1149,53,F,H,18,Drunkeness,M,41.27(C)LAM,DRINKING IN PUBLIC,FIGUEROA,AVENUE 53,,34.1069,-118.1982
5619031,5/3/2019,1550,6,Hollywood,677,34,M,H,22,Driving Under Influence,M,23152(B)VC,DRUNK DRIVING .10 OR ABOVE,MELROSE,WILTON,,34.0835,-118.3135
191109800,4/29/2019,,11,Northeast,1172,40,M,H,18,Drunkeness,M,41.27(C)LAM,DRINKING IN PUBLIC,1600    MOHAWK                       ST,,,34.0845,-118.2622
190112496,4/27/2019,1045,1,Central,158,53,M,B,18,Drunkeness,M,41.27CLAMC,DRINKING IN PUBLIC,6TH                          ST,KOHLER,,34.0394,-118.2405
190112666,4/13/2019,2120,1,Central,148,65,M,B,18,Drunkeness,M,41.27CLAMC,DRINKING IN PUBLIC,5TH,CROCKER,,34.043,-118.242
5616005,4/30/2019,2115,16,Foothill,1601,38,M,H,22,Driving Under Influence,F,23550(A)VC,DUI W/PRIOR SPEC CONVICTIONS,GLENOAKS,GRISWOLD,,34.2865,-118.4161
190112535,4/28/2019,1030,1,Central,156,63,M,B,17,Liquor Laws,M,25620BP,OPEN ALCOHOLIC BEV IN PUBLIC PARK/PLACE,5TH                          ST,SAN PEDRO,,34.0442,-118.2439
5619563,5/4/2019,256,14,Pacific,1494,31,M,B,22,Driving Under Influence,M,23152(A)VC,DRUNK DRIVING ALCOHOL/DRUGS,SEPULVEDA                    BL,CENTURY                      AV,,33.9445,-118.3961
5619428,5/3/2019,2245,15,N Hollywood,1523,24,F,W,22,Driving Under Influence,M,23152(A)VC,DRUNK DRIVING ALCOHOL/DRUGS,VICTORY,BELLAIRE,,34.1867,-118.4094
5616839,5/1/2019,1420,5,Harbor,557,49,F,H,22,Driving Under Influence,M,23152(F)VC,DUI OF ANY DRUG,5TH                          ST,GAFFEY                       ST,,33.7397,-118.2923
192109545,5/3/2019,1430,21,Topanga,2146,66,M,H,18,Drunkeness,M,41.27CLAMC,DRINKING IN PUBLIC,DEERING,GAULT,,34.1992,-118.5967
5614227,4/29/2019,1230,8,West LA,886,54,F,W,22,Driving Under Influence,M,23152(A)VC,DRUNK DRIVING ALCOHOL/DRUGS,2600    ANCHOR                       AV,,,34.0432,-118.4001
190809257,5/1/2019,1750,8,West LA,855,36,M,W,18,Drunkeness,M,41.27CLAMC,DRINKING IN PUBLIC,SANTA MONICA                 BL,WESTWOOD                     BL,,34.0499,-118.437
5617445,5/1/2019,2350,1,Central,111,21,M,H,22,Driving Under Influence,M,23152(A)VC,DRUNK DRIVING ALCOHOL/DRUGS,GRAND,CESAR CHAVEZ,,34.0603,-118.2439
5619016,5/3/2019,1455,20,Olympic,2001,67,M,H,22,Driving Under Influence,M,21200.5VC,DUI ALCOHOL/DRUGS ON BICYCLE,WASHINGTON,ST ANDREWS,,34.0799,-118.3181
190409321,4/28/2019,1245,4,Hollenbeck,427,44,M,H,18,Drunkeness,M,41.27(C)LAM,DRINKING IN PUBLIC,EASTERN,TWINING,,34.0834,-118.178
190112343,4/28/2019,1645,1,Central,163,61,M,W,17,Liquor Laws,I,25620ABP,DRINKING ALCOHOL,8TH,HOPE,,34.0438,-118.2547
191310722,5/1/2019,1733,13,Newton,1307,48,M,H,17,Liquor Laws,I,25620ABP,DRINKING ALCOHOL,7TH,CERES,,34.038,-118.243
191709471,4/30/2019,950,17,Devonshire,1722,59,F,W,17,Liquor Laws,I,25620BP,OPEN ALCOHOLIC BEV IN PUBLIC PARK/PLACE,DEVONSHIRE                   ST,CANOGA                       AV,,34.2573,-118.5973
5613181,4/28/2019,330,16,Foothill,1693,42,F,B,22,Driving Under Influence,M,23152(A)VC,DRUNK DRIVING ALCOHOL/DRUGS,HOLLYWOOD                    FY,SHERMAN                      WY,,34.2121,-118.4021
190409322,4/28/2019,1705,4,Hollenbeck,402,35,M,H,18,Drunkeness,M,41.27(C)LAM,DRINKING IN PUBLIC,BROADWAY,FLORIZEL,,34.0923,-118.1978
5613941,4/28/2019,2135,7,Wilshire,742,29,M,H,22,Driving Under Influence,M,23152(A)VC,DRUNK DRIVING ALCOHOL/DRUGS,WILSHIRE                     BL,CRESCENT HGH,,34.0611,-118.3681
5612977,4/28/2019,154,15,N Hollywood,1548,21,M,H,22,Driving Under Influence,M,23152(A)VC,DRUNK DRIVING ALCOHOL/DRUGS,WEDDINGTON,LANKERSHIM,,34.167,-118.3759
5618314,5/2/2019,2355,12,77th Street,1265,26,M,B,22,Driving Under Influence,M,23152(A)VC,DRUNK DRIVING ALCOHOL/DRUGS,MANCHESTER,BUDLONG,,33.96,-118.2959
5618126,5/2/2019,1830,18,Southeast,1863,54,F,W,22,Driving Under Influence,M,23152(F)VC,DUI OF ANY DRUG,HOOVER,MANCHESTER,,33.9271,-118.2659
5617460,5/2/2019,243,15,N Hollywood,1503,48,M,H,22,Driving Under Influence,M,23152(A)VC,DRUNK DRIVING ALCOHOL/DRUGS,VANOWEN                      ST,VANTAGE                      AV,,34.194,-118.3976
190112533,4/30/2019,910,1,Central,158,60,M,B,17,Liquor Laws,M,25620BP,OPEN ALCOHOLIC BEV IN PUBLIC PARK/PLACE,7TH                          ST,GLADYS,,34.0387,-118.2439
191709449,4/25/2019,1815,17,Devonshire,1752,62,F,W,17,Liquor Laws,I,25620BP,OPEN ALCOHOLIC BEV IN PUBLIC PARK/PLACE,DEVONSHIRE,CANOGA,,34.2572,-118.5973
191109833,4/30/2019,1500,11,Northeast,1177,47,M,H,18,Drunkeness,M,41.27(C)LAM,DRINKING IN PUBLIC,AVENUE 26,SAN FERNANDO,,34.0869,-118.2258
190112497,4/27/2019,1635,1,Central,157,53,M,B,17,Liquor Laws,M,25620BP,OPEN ALCOHOLIC BEV IN PUBLIC PARK/PLACE,6TH                          ST,SAN PEDRO,,34.0417,-118.2443
191310662,4/25/2019,1415,13,Newton,1307,39,M,W,17,Liquor Laws,M,25620BP,OPEN ALCOHOLIC BEV IN PUBLIC PARK/PLACE,7TH                          ST,SAN PEDRO,,34.0407,-118.2468
5615930,4/30/2019,1510,5,Harbor,587,36,M,B,16,Narcotic Drug Laws,F,4573PC,BRING/SEND NARC/CONT SUBS/ALCOHOL TO JAIL,28TH                         ST,PACIFIC,,33.7188,-118.2879
191411387,4/27/2019,1325,14,Pacific,1431,25,M,H,17,Liquor Laws,I,25620(A)BP,DRINKING ALCOHOL,1400    MAIN                         ST,,,33.9894,-118.4721
5612935,4/28/2019,15,21,Topanga,2115,40,M,H,22,Driving Under Influence,M,23152(A)VC,DRUNK DRIVING ALCOHOL/DRUGS,LANARK,TOPANGA CANYON,,34.2176,-118.606
190112720,5/1/2019,1445,1,Central,157,60,M,B,18,Drunkeness,M,41.27CLAMC,DRINKING IN PUBLIC,6TH                          ST,SAN PEDRO,,34.0417,-118.2443
5619236,5/3/2019,2030,13,Newton,1313,52,M,H,22,Driving Under Influence,M,23152(A)VC,DRUNK DRIVING ALCOHOL/DRUGS,CENTRAL,14TH                         PL,,34.0276,-118.2477
5618151,5/2/2019,1950,12,77th Street,1265,33,M,H,22,Driving Under Influence,M,23152(A)VC,DRUNK DRIVING ALCOHOL/DRUGS,MANCHESTER,BUDLONG,,33.96,-118.2959
5617009,5/1/2019,2130,1,Central,185,20,M,B,22,Driving Under Influence,M,23152(B)VC,DRUNK DRIVING .10 OR ABOVE,MAIN,PICO,,34.0364,-118.2603
5618413,5/3/2019,238,8,West LA,805,29,F,W,22,Driving Under Influence,M,23152(A)VC,DRUNK DRIVING ALCOHOL/DRUGS,SAN DIEGO                    FY,SKIRBALL CENTER              DR,,34.1226,-118.4784
5617069,5/1/2019,2137,21,Topanga,2148,33,M,H,22,Driving Under Influence,M,23152(A)VC,DRUNK DRIVING ALCOHOL/DRUGS,6900    COZYCROFT                    AV,,,34.1956,-118.58
5613235,4/28/2019,930,9,Van Nuys,935,26,F,H,22,Driving Under Influence,M,23152(B)VC,DRUNK DRIVING .10 OR ABOVE,14400    ERWIN                        ST,,,34.1837,-118.4465
190112484,4/25/2019,2000,1,Central,156,57,M,B,18,Drunkeness,M,41.27CLAMC,DRINKING IN PUBLIC,5TH                          ST,SAN JULIAN,,34.0446,-118.245
5619320,5/3/2019,2205,6,Hollywood,668,52,M,H,22,Driving Under Influence,M,21200.5VC,DUI ALCOHOL/DRUGS ON BICYCLE,DE LONGPRE,SAINT ANDREWS,,34.0969,-118.3109
5613204,4/28/2019,331,3,Southwest,315,24,M,W,22,Driving Under Influence,M,23152(A)VC,DRUNK DRIVING ALCOHOL/DRUGS,10                           FY,WESTERN,,34.034,-118.3133
190112661,5/1/2019,1000,1,Central,176,32,M,H,17,Liquor Laws,I,25620ABP,DRINKING ALCOHOL,7TH,CERES,,34.0404,-118.2504
5618418,5/3/2019,226,6,Hollywood,635,28,M,H,22,Driving Under Influence,M,23152(A)VC,DRUNK DRIVING ALCOHOL/DRUGS,HOLLYWOOD                    FY,CAHUENGA,,34.1083,-118.3308
5618224,5/2/2019,2030,12,77th Street,1265,37,F,B,22,Driving Under Influence,M,23152(F)VC,DUI OF ANY DRUG,MANCHESTER,BUDLONG,,33.96,-118.2959
5613970,4/29/2019,345,16,Foothill,1681,25,M,H,22,Driving Under Influence,M,23152(A)VC,DRUNK DRIVING ALCOHOL/DRUGS,ROSCOE                       BL,HOLLYWOOD                    FY,,34.2217,-118.41
191109835,4/30/2019,1500,11,Northeast,1177,47,M,H,18,Drunkeness,M,41.27(C)LAM,DRINKING IN PUBLIC,AVENUE 26,SAN FERNANDO                 RD,,34.0869,-118.2258
5619517,5/4/2019,200,19,Mission,1951,29,M,H,22,Driving Under Influence,M,23152(A)VC,DRUNK DRIVING ALCOHOL/DRUGS,DEVONSHIRE,SAN DIEGO                    FY,,34.261,-118.4698
5613914,4/28/2019,2357,6,Hollywood,638,39,M,B,22,Driving Under Influence,M,23152(A)VC,DRUNK DRIVING ALCOHOL/DRUGS,HOLLYWOOD                    FY,GOWER,,34.1038,-118.3151
5619312,5/3/2019,2110,1,Central,162,67,M,W,22,Driving Under Influence,M,23152(A)VC,DRUNK DRIVING ALCOHOL/DRUGS,FIGUEROA                     ST,9TH                          ST,,34.0462,-118.2628
5619271,5/3/2019,2105,15,N Hollywood,1523,33,M,H,22,Driving Under Influence,M,23152(A)VC,DRUNK DRIVING ALCOHOL/DRUGS,BELLAIRE,VICTORY,,34.1867,-118.4094
5617762,5/2/2019,1000,10,West Valley,1008,45,M,H,22,Driving Under Influence,M,23152(A)VC,DRUNK DRIVING ALCOHOL/DRUGS,ROSCOE                       BL,HOME DEPOT                   PL,,34.2077,-118.4912
5613943,4/29/2019,235,1,Central,185,32,M,H,22,Driving Under Influence,M,23152(A)VC,DRUNK DRIVING ALCOHOL/DRUGS,12TH                         ST,MAPLE                        AV,,34.0357,-118.2563
5615066,4/29/2019,2340,6,Hollywood,666,32,F,B,22,Driving Under Influence,M,23152(A)VC,DRUNK DRIVING ALCOHOL/DRUGS,WILCOX,LA MIRADA,,34.0935,-118.331
5619460,5/4/2019,30,8,West LA,805,41,M,W,22,Driving Under Influence,M,23152(A)VC,DRUNK DRIVING ALCOHOL/DRUGS,SAN DIEGO                    FY,GETTY CENTER                 DR,,34.1016,-118.4698
5613633,4/28/2019,1533,12,77th Street,1258,34,M,H,22,Driving Under Influence,M,23152(A)VC,DRUNK DRIVING ALCOHOL/DRUGS,HARBOR                       FY,FLORENCE                     AV,,33.9713,-118.2739
190112488,4/27/2019,1845,1,Central,155,67,M,B,18,Drunkeness,M,41.27CLAMC,DRINKING IN PUBLIC,6TH                          ST,WALL,,34.0435,-118.2471
5613160,4/28/2019,210,19,Mission,1981,23,M,H,22,Driving Under Influence,M,23152(A)VC,DRUNK DRIVING ALCOHOL/DRUGS,8700    LANGDON                      AV,,,34.2283,-118.4699
5619365,5/3/2019,2252,6,Hollywood,677,24,M,H,22,Driving Under Influence,M,23152(A)VC,DRUNK DRIVING ALCOHOL/DRUGS,MELROSE                      AV,WESTERN                      AV,,34.0835,-118.3091
190112344,4/28/2019,1810,1,Central,163,72,M,H,17,Liquor Laws,I,25620ABP,DRINKING ALCOHOL,8TH,BROADWAY,,34.0445,-118.2558
5614359,4/29/2019,1645,3,Southwest,319,28,F,H,22,Driving Under Influence,M,23152(A)VC,DRUNK DRIVING ALCOHOL/DRUGS,23RD                         ST,FIGUEROA                     WY,,34.0311,-118.2749
5612925,4/28/2019,1,21,Topanga,2146,27,M,H,22,Driving Under Influence,M,23152(A)VC,DRUNK DRIVING ALCOHOL/DRUGS,OWENSMOUTH,SHERMAN                      WY,,34.201,-118.6016
5616150,5/1/2019,58,8,West LA,814,28,M,B,22,Driving Under Influence,M,23152(A)VC,DRUNK DRIVING ALCOHOL/DRUGS,SAN DIEGO                    FY,MORAGA                       DR,,34.0656,-118.4633
5618176,5/2/2019,1952,4,Hollenbeck,497,57,M,H,22,Driving Under Influence,M,23152(A)VC,DRUNK DRIVING ALCOHOL/DRUGS,CALZONA,WHITTIER,,34.0187,-118.2118
5613221,4/28/2019,415,12,77th Street,1255,27,M,B,22,Driving Under Influence,M,23152(A)VC,DRUNK DRIVING ALCOHOL/DRUGS,79TH,NORMANDIE,,33.9673,-118.3003
5616824,5/1/2019,1430,4,Hollenbeck,411,32,M,H,16,Narcotic Drug Laws,F,4573PC,BRING/SEND NARC/CONT SUBS/ALCOHOL TO JAIL,AVENUE 18,BARRANCA,,34.0747,-118.2244
5619569,5/4/2019,327,15,N Hollywood,1503,25,F,B,22,Driving Under Influence,M,23152(A)VC,DRUNK DRIVING ALCOHOL/DRUGS,SHERMAN                      WY,HOLLYWOOD                    FY,,34.2012,-118.4035
5616741,5/1/2019,840,17,Devonshire,1795,49,M,H,22,Driving Under Influence,M,23152(F)VC,DUI OF ANY DRUG,BALBOA,ROSCOE,,34.2212,-118.5027
5615491,4/30/2019,715,20,Olympic,2074,26,M,H,22,Driving Under Influence,M,23152(A)VC,DRUNK DRIVING ALCOHOL/DRUGS,NORMANDIE,PICO,,34.0472,-118.3003
190112603,4/27/2019,1415,1,Central,124,44,M,O,17,Liquor Laws,I,25620ABP,DRINKING ALCOHOL,1ST,MAIN,,34.0522,-118.2434
190112719,5/1/2019,1615,1,Central,148,64,M,W,17,Liquor Laws,M,25620BP,OPEN ALCOHOLIC BEV IN PUBLIC PARK/PLACE,GLADYS,CENTRAL,,34.0421,-118.2397
190112493,4/26/2019,930,1,Central,158,40,M,B,17,Liquor Laws,M,25620BP,OPEN ALCOHOLIC BEV IN PUBLIC PARK/PLACE,7TH                          ST,CERES,,34.038,-118.243
5616088,4/30/2019,2251,10,West Valley,1021,24,M,H,22,Driving Under Influence,M,23152(A)VC,DRUNK DRIVING ALCOHOL/DRUGS,SHIRLEY                      AV,HARTLAND                     ST,,34.1947,-118.5579
190112498,4/27/2019,1655,1,Central,157,56,F,B,17,Liquor Laws,M,25620BP,OPEN ALCOHOLIC BEV IN PUBLIC PARK/PLACE,6TH                          ST,SAN JULIAN,,34.0416,-118.244
5615084,4/30/2019,107,9,Van Nuys,974,28,M,W,22,Driving Under Influence,M,23152(A)VC,DRUNK DRIVING ALCOHOL/DRUGS,VAN NUYS,VENTURA                      FY,,34.1569,-118.4487
5619224,5/3/2019,1850,14,Pacific,1494,30,F,H,18,Drunkeness,M,647(F)PC,"DISORD CONDUCT:UI/DRUG, ALCOHOL",400    WORLD                        WY,,,33.9433,-118.4072
5618052,5/2/2019,1725,16,Foothill,1611,39,M,H,22,Driving Under Influence,M,23152(B)VC,DRUNK DRIVING .10 OR ABOVE,13300    CORCORAN                     ST,,,34.2841,-118.4227
5613934,4/29/2019,135,9,Van Nuys,966,33,M,H,22,Driving Under Influence,M,23152(A)VC,DRUNK DRIVING ALCOHOL/DRUGS,WOODMAN                      AV,VENTURA                      FY,,34.1622,-118.4269
191411397,4/27/2019,1325,14,Pacific,1431,24,M,O,17,Liquor Laws,I,25620(A)BP,DRINKING ALCOHOL,1400    MAIN                         ST,,,33.9894,-118.4721
190112531,4/29/2019,1430,1,Central,158,50,F,B,17,Liquor Laws,M,25620BP,OPEN ALCOHOLIC BEV IN PUBLIC PARK/PLACE,7TH                          ST,GLADYS,,34.0387,-118.2439
5617347,5/1/2019,2325,4,Hollenbeck,443,31,M,H,22,Driving Under Influence,M,23152(A)VC,DRUNK DRIVING ALCOHOL/DRUGS,SOTO,CHARLOTTE,,34.0569,-118.2014
190112487,4/25/2019,1800,1,Central,156,70,M,H,18,Drunkeness,M,41.27CLAMC,DRINKING IN PUBLIC,5TH                          ST,SAN PEDRO,,34.0442,-118.2439
5616220,5/1/2019,432,15,N Hollywood,1563,29,M,W,22,Driving Under Influence,M,23152(A)VC,DRUNK DRIVING ALCOHOL/DRUGS,VENTURA                      FY,LAUREL CANYON                BL,,34.1544,-118.3965
190112662,5/1/2019,1500,1,Central,158,68,M,B,17,Liquor Laws,I,25620ABP,DRINKING ALCOHOL,6TH,GLADYS,,34.0403,-118.2421
5615092,4/30/2019,132,17,Devonshire,1708,35,M,W,22,Driving Under Influence,M,23152(A)VC,DRUNK DRIVING ALCOHOL/DRUGS,KNOLLWOOD,CLONLEE,,34.2844,-118.4968
190112608,4/26/2019,1700,1,Central,162,34,M,W,17,Liquor Laws,I,25620ABP,DRINKING ALCOHOL,7TH,OLIVE,,34.0467,-118.2556
191310749,5/1/2019,1435,13,Newton,1307,57,M,B,17,Liquor Laws,I,25620ABP,DRINKING ALCOHOL,7TH,SAN PEDRO,,34.0407,-118.2468
5616142,5/1/2019,119,10,West Valley,1049,31,F,H,22,Driving Under Influence,M,23152(A)VC,DRUNK DRIVING ALCOHOL/DRUGS,HAYVENHURST                  AV,BURBANK                      BL,,34.167,-118.4923
5613174,4/28/2019,154,6,Hollywood,637,31,F,W,22,Driving Under Influence,M,23152(A)VC,DRUNK DRIVING ALCOHOL/DRUGS,GOWER                        ST,YOLLA                        ST,,34.103,-118.3225
191310663,4/25/2019,1400,13,Newton,1307,58,M,B,17,Liquor Laws,M,25620BP,OPEN ALCOHOLIC BEV IN PUBLIC PARK/PLACE,7TH                          ST,SAN PEDRO,,34.0407,-118.2468
5612943,4/28/2019,45,20,Olympic,2033,23,F,O,22,Driving Under Influence,M,23152(A)VC,DRUNK DRIVING ALCOHOL/DRUGS,WESTERN,8TH                          ST,,34.0581,-118.3091
191411308,4/28/2019,1715,14,Pacific,1431,25,M,H,17,Liquor Laws,I,25620(A)BP,DRINKING ALCOHOL,OCEAN FRONT                  WK,MARKET,,33.9875,-118.4741
5613816,4/28/2019,1800,14,Pacific,1452,60,M,W,22,Driving Under Influence,M,23152(F)VC,DUI OF ANY DRUG,WASHINGTON,PACIFIC,,33.9798,-118.4656
191709450,4/25/2019,1550,17,Devonshire,1793,48,M,H,17,Liquor Laws,I,25620BP,OPEN ALCOHOLIC BEV IN PUBLIC PARK/PLACE,VANALDEN,PARTHENIA,,34.2283,-118.5492
191411433,4/30/2019,840,14,Pacific,1412,55,M,B,17,Liquor Laws,I,25620(A)BP,DRINKING ALCOHOL,OCEAN FRONT                  WK,WAVECREST,,33.9933,-118.4765
5619383,5/3/2019,2330,1,Central,162,25,M,H,22,Driving Under Influence,M,23152(A)VC,DRUNK DRIVING ALCOHOL/DRUGS,OLYMPIC,FLOWER,,34.0462,-118.2585
5618306,5/2/2019,2332,4,Hollenbeck,483,43,M,H,22,Driving Under Influence,M,23152(A)VC,DRUNK DRIVING ALCOHOL/DRUGS,GOLDEN STATE                 FY,4TH                          ST,,34.0305,-118.2193
5612979,4/28/2019,115,21,Topanga,2115,27,M,W,22,Driving Under Influence,M,23152(A)VC,DRUNK DRIVING ALCOHOL/DRUGS,8200    TOPANGA CANYON               BL,,,34.2176,-118.606
5617414,5/2/2019,20,12,77th Street,1249,37,M,H,22,Driving Under Influence,M,23152(A)VC,DRUNK DRIVING ALCOHOL/DRUGS,70TH                         ST,FIGUEROA,,33.9765,-118.2827
190112721,5/1/2019,2200,1,Central,147,58,F,B,17,Liquor Laws,M,25620BP,OPEN ALCOHOLIC BEV IN PUBLIC PARK/PLACE,5TH                          ST,WALL                         ST,,34.0446,-118.245
191411386,4/26/2019,1545,14,Pacific,1441,48,F,W,17,Liquor Laws,I,25620(A)BP,DRINKING ALCOHOL,PACIFIC,29TH                         AV,,33.9809,-118.4665
5619503,5/4/2019,200,1,Central,162,20,M,H,22,Driving Under Influence,M,23152(F)VC,DUI OF ANY DRUG,9TH                          ST,FIGUEROA,,34.0462,-118.2628
190809313,5/4/2019,30,8,West LA,805,41,M,W,22,Driving Under Influence,M,23152(A)VC,DRUNK DRIVING ALCOHOL/DRUGS,SANTA MONICA                 FY,GETTY CENTER                 DR,,34.1016,-118.4698
5616299,5/1/2019,215,19,Mission,1931,21,F,H,22,Driving Under Influence,F,23153(A)VC,DUI ALCOHOL CAUSING INJURY,15000    RINALDI                      ST,,,34.283,-118.4635
5617524,5/2/2019,203,1,Central,191,37,F,H,22,Driving Under Influence,M,23152(A)VC,DRUNK DRIVING ALCOHOL/DRUGS,FIGUEROA                     ST,4TH                          ST,,34.0388,-118.2717
5615020,4/29/2019,2130,3,Southwest,333,28,M,W,22,Driving Under Influence,M,23152(A)VC,DRUNK DRIVING ALCOHOL/DRUGS,ADAMS                        BL,12TH                         AV,,34.0278,-118.3378
5619403,5/3/2019,2202,15,N Hollywood,1523,19,M,H,22,Driving Under Influence,M,23152(F)VC,DUI OF ANY DRUG,VICTORY,BELLAIRE,,34.1867,-118.4094
5613213,4/28/2019,220,9,Van Nuys,995,29,F,W,22,Driving Under Influence,M,23152(A)VC,DRUNK DRIVING ALCOHOL/DRUGS,SAN DIEGO                    FY,GETTY                        DR,,0,0
5616528,5/1/2019,1000,5,Harbor,523,61,M,B,22,Driving Under Influence,M,23152(A)VC,DRUNK DRIVING ALCOHOL/DRUGS,2100    JOHN S GIBSON,,,33.7577,-118.2884
5619366,5/3/2019,2125,16,Foothill,1606,26,F,W,22,Driving Under Influence,M,23152(F)VC,DUI OF ANY DRUG,FOOTHILL,OSBORNE,,34.276,-118.3783
5613564,4/28/2019,1040,7,Wilshire,789,22,F,W,22,Driving Under Influence,M,23152(F)VC,DUI OF ANY DRUG,2100    ARLINGTON                    AV,,,34.0379,-118.323
190112546,4/27/2019,1730,1,Central,146,54,M,H,17,Liquor Laws,M,25620BP,OPEN ALCOHOLIC BEV IN PUBLIC PARK/PLACE,5TH                          ST,LOS ANGELES,,34.0461,-118.2476
5617430,5/2/2019,125,20,Olympic,2069,22,M,H,22,Driving Under Influence,M,23152(A)VC,DRUNK DRIVING ALCOHOL/DRUGS,OLYMPIC                      BL,MAGNOLIA                     AV,,34.0524,-118.2865
5619289,5/3/2019,2125,13,Newton,1363,24,M,H,22,Driving Under Influence,M,23152(A)VC,DRUNK DRIVING ALCOHOL/DRUGS,AVALON,51ST                         ST,,33.9966,-118.2652
5616279,5/1/2019,240,14,Pacific,1488,28,F,B,22,Driving Under Influence,M,23152(A)VC,DRUNK DRIVING ALCOHOL/DRUGS,MANCHESTER,AVIATION,,33.9526,-118.3823
5618571,5/3/2019,700,7,Wilshire,787,27,M,B,22,Driving Under Influence,M,23152(A)VC,DRUNK DRIVING ALCOHOL/DRUGS,WASHINGTON                   BL,VICTORIA                     AV,,34.0399,-118.3337
191109836,4/30/2019,1500,11,Northeast,1177,51,M,H,18,Drunkeness,M,41.27(C)LAM,DRINKING IN PUBLIC,SAN FERNANDO                 RD,AVENUE 26,,34.0875,-118.2259
190112718,5/1/2019,2000,1,Central,128,22,M,H,17,Liquor Laws,M,25620BP,OPEN ALCOHOLIC BEV IN PUBLIC PARK/PLACE,1ST                          ST,CENTRAL,,34.0492,-118.2391
190112494,4/26/2019,950,1,Central,158,51,M,B,17,Liquor Laws,M,25620BP,OPEN ALCOHOLIC BEV IN PUBLIC PARK/PLACE,6TH                          ST,STANFORD,,34.0403,-118.2421
5617856,5/2/2019,1035,9,Van Nuys,964,22,M,W,22,Driving Under Influence,M,23152(A)VC,DRUNK DRIVING ALCOHOL/DRUGS,14200    HUSTON                       ST,,,34.1594,-118.4421
190809260,4/30/2019,1645,8,West LA,883,53,M,W,17,Liquor Laws,I,25620(A)BP,DRINKING ALCOHOL,COTNER,LA GRANGE,,34.0422,-118.4418
191411401,4/29/2019,1035,14,Pacific,1412,52,M,B,17,Liquor Laws,I,25620(A)BP,DRINKING ALCOHOL,MAIN                         ST,WESTMINSTER                  AV,,33.9901,-118.4726
191709580,4/27/2019,1820,17,Devonshire,1794,60,M,H,18,Drunkeness,M,41.27(C)LAM,DRINKING IN PUBLIC,CHASE,CANBY,,34.2246,-118.5349
5619353,5/3/2019,2159,6,Hollywood,615,39,M,H,22,Driving Under Influence,M,23152(F)VC,DUI OF ANY DRUG,VIRGINIA,SAINT ANDREWS,,34.1267,-118.3316
5619436,5/3/2019,2251,16,Foothill,1611,43,M,H,22,Driving Under Influence,M,21200.5VC,DUI ALCOHOL/DRUGS ON BICYCLE,13200    VAUGHN                       ST,,,34.2782,-118.4273
190112492,4/26/2019,1155,1,Central,158,63,M,B,17,Liquor Laws,M,25620BP,OPEN ALCOHOLIC BEV IN PUBLIC PARK/PLACE,7TH                          ST,GLADYS,,34.0387,-118.2439
5618672,5/3/2019,1100,6,Hollywood,669,36,M,H,16,Narcotic Drug Laws,F,4573PC,BRING/SEND NARC/CONT SUBS/ALCOHOL TO JAIL,HOBART,LEXINGTON,,34.093,-118.3046
5618162,5/2/2019,1905,12,77th Street,1265,19,M,H,22,Driving Under Influence,M,23152(F)VC,DUI OF ANY DRUG,NORMANDIE,81ST,,33.9655,-118.3003
190112486,4/25/2019,1850,1,Central,157,74,M,H,17,Liquor Laws,M,25620BP,OPEN ALCOHOLIC BEV IN PUBLIC PARK/PLACE,500    CROCKER                      ST,,,34.0435,-118.2427
5616634,5/1/2019,1315,2,Rampart,265,29,M,H,22,Driving Under Influence,M,23152(A)VC,DRUNK DRIVING ALCOHOL/DRUGS,ALVARADO                     ST,8TH                          ST,,34.0549,-118.2778
5618996,5/3/2019,1459,20,Olympic,2071,52,M,H,22,Driving Under Influence,M,21200.5VC,DUI ALCOHOL/DRUGS ON BICYCLE,PICO,WESTERN,,34.0472,-118.309
5617353,5/1/2019,1920,16,Foothill,1668,34,M,H,22,Driving Under Influence,F,23153(A)VC,DUI ALCOHOL CAUSING INJURY,TOPANGA CANYON               BL,PALI                         AV,,34.2428,-118.2937
5613583,4/28/2019,1300,20,Olympic,2055,27,M,H,22,Driving Under Influence,M,23152(B)VC,DRUNK DRIVING .10 OR ABOVE,NORMANDIE,12TH,,34.0491,-118.3
5619309,5/3/2019,2050,15,N Hollywood,1523,32,M,H,22,Driving Under Influence,M,23152(F)VC,DUI OF ANY DRUG,COLDWATER CA,VICTORY,,34.1849,-118.4095
191310667,4/30/2019,1741,13,Newton,1307,61,M,B,17,Liquor Laws,M,25620BP,OPEN ALCOHOLIC BEV IN PUBLIC PARK/PLACE,8TH,CROCKER,,34.0372,-118.2476
5618340,5/2/2019,2351,9,Van Nuys,966,53,M,H,22,Driving Under Influence,M,23152(A)VC,DRUNK DRIVING ALCOHOL/DRUGS,WOODMAN                      AV,VENTURA                      FY,,34.1622,-118.4269
5613917,4/28/2019,2134,1,Central,121,40,M,W,22,Driving Under Influence,M,23152(F)VC,DUI OF ANY DRUG,SANTA MONICA                 FY,HOLLYWOOD                    FY,,34.0601,-118.2502
5613975,4/29/2019,150,7,Wilshire,745,39,M,H,22,Driving Under Influence,M,23152(A)VC,DRUNK DRIVING ALCOHOL/DRUGS,LA BREA,6TH                          ST,,34.0572,-118.3482
5613868,4/28/2019,2300,19,Mission,1977,38,M,H,22,Driving Under Influence,M,23152(A)VC,DRUNK DRIVING ALCOHOL/DRUGS,BRADFORD,CANTERBURY,,34.2338,-118.4301
190311929,4/30/2019,1245,3,Southwest,378,58,M,B,18,Drunkeness,M,41.27CLAMC,DRINKING IN PUBLIC,MARTIN LUTHER KI,VERMONT,,34.0146,-118.2872
5619437,5/3/2019,2330,14,Pacific,1469,34,M,H,22,Driving Under Influence,M,23152(A)VC,DRUNK DRIVING ALCOHOL/DRUGS,LA TIJERA,THORNBURN,,33.9726,-118.3771
5616076,4/30/2019,2225,18,Southeast,1862,27,M,H,22,Driving Under Influence,M,23152(A)VC,DRUNK DRIVING ALCOHOL/DRUGS,IMPERIAL                     HY,FIGUEROA,,33.931,-118.2826
190112530,4/29/2019,1025,1,Central,138,40,M,H,17,Liquor Laws,M,25620BP,OPEN ALCOHOLIC BEV IN PUBLIC PARK/PLACE,4TH                          ST,CROCKER,,34.0449,-118.2415
190112664,5/1/2019,1500,1,Central,158,45,M,B,17,Liquor Laws,I,25620ABP,DRINKING ALCOHOL,6TH,GLADYS,,34.0403,-118.2421
190409218,4/28/2019,1400,4,Hollenbeck,478,59,M,H,18,Drunkeness,M,41.27(C)LAM,DRINKING IN PUBLIC,1000 S  FRESNO                       ST,,,34.0276,-118.207
191709451,4/25/2019,1610,17,Devonshire,1793,40,M,H,17,Liquor Laws,I,25620BP,OPEN ALCOHOLIC BEV IN PUBLIC PARK/PLACE,VANALDEN,PARTHENIA,,34.2283,-118.5492
5615653,4/30/2019,1310,15,N Hollywood,1503,50,M,H,22,Driving Under Influence,M,23152(B)VC,DRUNK DRIVING .10 OR ABOVE,KITTRIDGE,LANKERSHIM,,34.2003,-118.4002
190112499,4/28/2019,1515,1,Central,176,26,M,H,17,Liquor Laws,M,25620BP,OPEN ALCOHOLIC BEV IN PUBLIC PARK/PLACE,7TH                          ST,SAN JULIAN,,34.0412,-118.2474
190112667,5/2/2019,1418,1,Central,176,34,F,B,17,Liquor Laws,I,25620ABP,DRINKING ALCOHOL,7TH,MAPLE,,34.0419,-118.2485
5613175,4/28/2019,213,12,77th Street,1211,34,F,H,22,Driving Under Influence,M,23152(A)VC,DRUNK DRIVING ALCOHOL/DRUGS,SLAUSON                      AV,4TH,,33.9891,-118.3216
191310748,5/1/2019,1450,13,Newton,1307,50,M,B,17,Liquor Laws,I,25620ABP,DRINKING ALCOHOL,7TH,CERES,,34.038,-118.243
191411310,4/28/2019,1715,14,Pacific,1431,21,F,W,17,Liquor Laws,I,25620(A)BP,DRINKING ALCOHOL,OCEAN FRONT                  WK,MARKET,,33.9875,-118.4741
5618235,5/2/2019,2150,13,Newton,1325,31,M,H,22,Driving Under Influence,M,23152(F)VC,DUI OF ANY DRUG,CENTRAL,32ND,,34.0146,-118.2565
5619385,5/3/2019,2215,15,N Hollywood,1523,24,M,H,22,Driving Under Influence,M,23152(F)VC,DUI OF ANY DRUG,VICTORY,BELLAIRE,,34.1867,-118.4094
5618311,5/2/2019,2220,20,Olympic,2042,47,M,H,22,Driving Under Influence,M,23152(A)VC,DRUNK DRIVING ALCOHOL/DRUGS,WILTON                       PL,9TH                          ST,,34.0559,-118.3142
5617792,5/2/2019,1300,9,Van Nuys,935,24,F,W,22,Driving Under Influence,M,23152(A)VC,DRUNK DRIVING ALCOHOL/DRUGS,14400    ERWIN                        ST,,,34.1837,-118.4465
5615542,4/30/2019,1150,9,Van Nuys,935,29,M,H,22,Driving Under Influence,M,23152(A)VC,DRUNK DRIVING ALCOHOL/DRUGS,14400    ERWIN                        ST,,,34.1837,-118.4465
5613195,4/28/2019,328,1,Central,109,33,M,B,22,Driving Under Influence,M,23152(A)VC,DRUNK DRIVING ALCOHOL/DRUGS,HARBOR                       FY,HILL                         ST,,34.0752,-118.2276
5619392,5/3/2019,2120,12,77th Street,1218,38,M,H,22,Driving Under Influence,M,23152(A)VC,DRUNK DRIVING ALCOHOL/DRUGS,1700 W  52ND                         PL,,,33.995,-118.2849
190809255,5/2/2019,1620,8,West LA,851,54,M,W,18,Drunkeness,M,41.27CLAMC,DRINKING IN PUBLIC,SANTA MONICA,WELLESLEY,,34.0391,-118.4666
191109801,4/29/2019,120,11,Northeast,1172,40,M,H,18,Drunkeness,M,41.27(C)LAM,DRINKING IN PUBLIC,1600    MOHAWK                       ST,,,34.0845,-118.2622
5618285,5/2/2019,2120,12,77th Street,1258,61,M,B,22,Driving Under Influence,M,23152(A)VC,DRUNK DRIVING ALCOHOL/DRUGS,BROADWAY,82ND,,33.9713,-118.2739
190112495,4/26/2019,1025,1,Central,158,68,M,H,17,Liquor Laws,M,25620BP,OPEN ALCOHOLIC BEV IN PUBLIC PARK/PLACE,7TH                          ST,CERES,,34.038,-118.243
191411577,4/30/2019,830,14,Pacific,1412,30,M,W,17,Liquor Laws,I,25620(A)BP,DRINKING ALCOHOL,WAVECREST                    AV,OCEAN FRONT                  WK,,33.9933,-118.4765
5615990,4/30/2019,1955,19,Mission,1985,51,M,H,22,Driving Under Influence,M,23152(B)VC,DRUNK DRIVING .10 OR ABOVE,8700    TOBIAS                       AV,,,34.2279,-118.4516
5619368,5/3/2019,2225,15,N Hollywood,1523,28,M,W,22,Driving Under Influence,M,23152(A)VC,DRUNK DRIVING ALCOHOL/DRUGS,VICTORY,BELLAIRE,,34.1867,-118.4094
5415168,4/28/2019,110,8,West LA,801,70,M,W,22,Driving Under Influence,M,23152(A)VC,DRUNK DRIVING ALCOHOL/DRUGS,1600    PALISADES                    DR,,,34.0766,-118.5635
191109838,4/29/2019,1730,11,Northeast,1177,41,M,H,18,Drunkeness,M,41.27(C)LAM,DRINKING IN PUBLIC,HURON,AVENUE 26,,34.0845,-118.2231
191709452,4/25/2019,1600,17,Devonshire,1793,40,M,H,17,Liquor Laws,I,25620BP,OPEN ALCOHOLIC BEV IN PUBLIC PARK/PLACE,VANALDEN,PARTHENIA,,34.2283,-118.5492
5613709,4/28/2019,1903,15,N Hollywood,1503,30,M,H,22,Driving Under Influence,M,23152(A)VC,DRUNK DRIVING ALCOHOL/DRUGS,LAUREL CANYON,SATICOY,,34.2085,-118.3965
5615246,4/30/2019,840,9,Van Nuys,935,22,M,H,22,Driving Under Influence,M,23152(A)VC,DRUNK DRIVING ALCOHOL/DRUGS,14400    ERWIN                        ST,,,34.1837,-118.4465
5618099,5/2/2019,1710,7,Wilshire,766,46,M,H,22,Driving Under Influence,M,23152(A)VC,DRUNK DRIVING ALCOHOL/DRUGS,PICO,VICTORIA,,34.0481,-118.3295
5616098,4/30/2019,2305,16,Foothill,1675,24,M,H,22,Driving Under Influence,M,23152(A)VC,DRUNK DRIVING ALCOHOL/DRUGS,SUNLAND                      BL,GOLDEN STATE                 FY,,34.2221,-118.3665
190112491,4/26/2019,1205,1,Central,159,62,M,B,17,Liquor Laws,M,25620BP,OPEN ALCOHOLIC BEV IN PUBLIC PARK/PLACE,7TH                          ST,GLADYS,,34.0387,-118.2335
190112723,4/30/2019,1505,1,Central,152,48,M,B,17,Liquor Laws,M,25620BP,OPEN ALCOHOLIC BEV IN PUBLIC PARK/PLACE,7TH                          ST,FIGUEROA,,34.0494,-118.2599
190112717,5/1/2019,1440,1,Central,157,25,M,H,17,Liquor Laws,M,25620BP,OPEN ALCOHOLIC BEV IN PUBLIC PARK/PLACE,500    CROCKER                      ST,,,34.0435,-118.2427
5619345,5/3/2019,2132,6,Hollywood,679,66,M,B,22,Driving Under Influence,M,21200.5VC,DUI ALCOHOL/DRUGS ON BICYCLE,ROMAINE,NORMANDIE,,34.0886,-118.3005
5615032,4/29/2019,2145,20,Olympic,2038,31,M,H,22,Driving Under Influence,M,23152(A)VC,DRUNK DRIVING ALCOHOL/DRUGS,8TH                          ST,VERMONT                      AV,,34.0578,-118.2916
5618438,5/3/2019,230,5,Harbor,525,43,M,H,22,Driving Under Influence,M,23152(A)VC,DRUNK DRIVING ALCOHOL/DRUGS,500 N  AVALON                       BL,,,33.7739,-118.2678
5613742,4/28/2019,1920,15,N Hollywood,1509,29,M,H,22,Driving Under Influence,M,23152(A)VC,DRUNK DRIVING ALCOHOL/DRUGS,SHERMAN                      WY,CLYBOURN,,34.2012,-118.3621
190112739,4/30/2019,1420,1,Central,153,50,M,H,17,Liquor Laws,M,25620BP,OPEN ALCOHOLIC BEV IN PUBLIC PARK/PLACE,5TH                          ST,BROADWAY,,34.0485,-118.2513
191709579,4/27/2019,1815,17,Devonshire,1794,52,M,H,18,Drunkeness,M,41.27(C)LAM,DRINKING IN PUBLIC,CANBY,CHASE,,34.2246,-118.5349
5619535,5/4/2019,221,8,West LA,805,24,F,O,22,Driving Under Influence,M,23152(A)VC,DRUNK DRIVING ALCOHOL/DRUGS,SANTA MONICA,SAN DIEGO                    FY,,34.1016,-118.4698
5619418,5/3/2019,2337,21,Topanga,2187,47,M,H,22,Driving Under Influence,M,23152(A)VC,DRUNK DRIVING ALCOHOL/DRUGS,DE SOTO                      AV,VENTURA                      FY,,34.1681,-118.5881
5619586,5/4/2019,255,14,Pacific,1467,24,F,W,22,Driving Under Influence,M,23152(A)VC,DRUNK DRIVING ALCOHOL/DRUGS,CENTER                       DR,SEPULVEDA                    BL,,33.9782,-118.3941
5612958,4/28/2019,37,16,Foothill,1681,23,M,H,22,Driving Under Influence,M,23152(A)VC,DRUNK DRIVING ALCOHOL/DRUGS,ROSCOE                       BL,HOLLYWOOD                    FY,,34.2217,-118.41
191310668,4/30/2019,1724,13,Newton,1307,59,M,H,17,Liquor Laws,M,25620BP,OPEN ALCOHOLIC BEV IN PUBLIC PARK/PLACE,8TH,CROCKER,,34.0372,-118.2476
5619278,5/3/2019,1945,16,Foothill,1605,52,M,H,22,Driving Under Influence,M,23152(A)VC,DRUNK DRIVING ALCOHOL/DRUGS,11600    GLADSTONE                    AV,,,34.2809,-118.396
5537378,2/2/2019,1535,17,Devonshire,1749,29,M,H,22,Driving Under Influence,F,23153(A)VC,DUI ALCOHOL CAUSING INJURY,16300    DEVONSHIRE                   ST,,,34.261,-118.4807
5607502,4/22/2019,805,3,Southwest,391,37,M,B,22,Driving Under Influence,F,23153(A)VC,DUI ALCOHOL CAUSING INJURY,STOCKER,DON TOMASO,,34.0067,-118.3515
5612493,4/27/2019,845,10,West Valley,1011,40,M,H,22,Driving Under Influence,M,23152(A)VC,DRUNK DRIVING ALCOHOL/DRUGS,7400    CALVIN                       AV,,,34.2047,-118.5557
5612847,4/27/2019,2020,12,77th Street,1255,55,M,H,22,Driving Under Influence,F,23153(A)VC,DUI ALCOHOL CAUSING INJURY,DALTON                       AV,FLORENCE                     AV,,33.9746,-118.3035
5613229,4/28/2019,58,13,Newton,1345,27,F,B,22,Driving Under Influence,M,23152(A)VC,DRUNK DRIVING ALCOHOL/DRUGS,3400 S  CENTRAL                      AV,,,34.0128,-118.2565
5615023,4/29/2019,2232,10,West Valley,1039,26,M,H,22,Driving Under Influence,M,23152(A)VC,DRUNK DRIVING ALCOHOL/DRUGS,VICTORY,WOODLEY,,34.1867,-118.4836
5617392,5/1/2019,2230,1,Central,161,40,F,H,22,Driving Under Influence,M,23152(A)VC,DRUNK DRIVING ALCOHOL/DRUGS,FIGUEROA,5TH                          ST,,34.0483,-118.2631
5617704,5/2/2019,1055,9,Van Nuys,935,23,M,H,22,Driving Under Influence,M,23152(B)VC,DRUNK DRIVING .10 OR ABOVE,14400    ERWIN                        ST,,,34.1837,-118.4465
5618400,5/3/2019,55,18,Southeast,1836,27,M,H,22,Driving Under Influence,M,23152(A)VC,DRUNK DRIVING ALCOHOL/DRUGS,103RD,COMPTON,,33.9433,-118.2462
5619272,5/3/2019,2045,13,Newton,1309,36,M,H,22,Driving Under Influence,M,23152(A)VC,DRUNK DRIVING ALCOHOL/DRUGS,WASHINGTON,SANTA FE,,34.0184,-118.2303
5619390,5/3/2019,2200,1,Central,162,23,F,B,22,Driving Under Influence,M,23152(F)VC,DUI OF ANY DRUG,9TH,FIGUEROA,,34.0462,-118.2628
5619465,5/3/2019,2250,15,N Hollywood,1523,28,F,W,22,Driving Under Influence,M,23152(A)VC,DRUNK DRIVING ALCOHOL/DRUGS,VICTORY,BELLAIRE,,34.1867,-118.4094
5619496,5/3/2019,2300,3,Southwest,375,30,M,H,22,Driving Under Influence,M,23152(A)VC,DRUNK DRIVING ALCOHOL/DRUGS,1600    MIDDLETON                    PL,,,34.0155,-118.3089
5619577,5/4/2019,20,10,West Valley,1018,46,M,B,22,Driving Under Influence,M,23152(A)VC,DRUNK DRIVING ALCOHOL/DRUGS,HASKELL                      AV,SHERMAN                      WY,,34.2012,-118.4749
5620190,5/4/2019,2055,13,Newton,1362,24,F,H,22,Driving Under Influence,M,23152(F)VC,DUI OF ANY DRUG,AVALON,51ST,,33.9966,-118.2652
190312191,5/3/2019,1730,3,Southwest,393,38,M,B,18,Drunkeness,I,41.27CLAMC,DRINKING IN PUBLIC,STOCKER                      ST,CRENSHAW                     BL,,34.008,-118.3351
191411810,5/5/2019,1830,14,Pacific,1452,36,M,W,17,Liquor Laws,I,25620(A)BP,DRINKING ALCOHOL,OCEAN FRONT                  WK,WASHINGTON,,33.9791,-118.4669
5620239,5/4/2019,2240,13,Newton,1362,50,M,H,22,Driving Under Influence,M,23152(A)VC,DRUNK DRIVING ALCOHOL/DRUGS,AVALON,51ST,,33.9966,-118.2652
192010340,5/3/2019,1810,20,Olympic,2069,51,F,H,17,Liquor Laws,M,25658(A)BP,SALE/ETC OF ALCOHOLIC BEVERAGE TO MINOR,1000 S  VERMONT                      AV,,,34.0526,-118.2916
190112875,4/8/2019,2100,1,Central,185,38,M,H,18,Drunkeness,M,41.27CLAMC,DRINKING IN PUBLIC,11TH,LOS ANGELES,,34.0381,-118.2566
5619490,5/3/2019,2300,16,Foothill,1663,49,M,H,22,Driving Under Influence,M,23152(A)VC,DRUNK DRIVING ALCOHOL/DRUGS,LAUREL CANYON,JEROME,,34.2344,-118.4062
191412054,5/10/2019,1640,14,Pacific,1431,45,M,W,17,Liquor Laws,I,25620BP,OPEN ALCOHOLIC BEV IN PUBLIC PARK/PLACE,PARK ROW,MARKET,,33.9885,-118.4724
192010255,5/2/2019,2100,20,Olympic,2088,35,M,H,18,Drunkeness,M,41.27(C)LAM,DRINKING IN PUBLIC,ORCHARD,17TH                         ST,,34.0427,-118.2887
192010342,5/3/2019,1810,20,Olympic,2038,59,M,A,17,Liquor Laws,M,25658(A)BP,SALE/ETC OF ALCOHOLIC BEVERAGE TO MINOR,700 S  VERMONT                      AV,,,34.0598,-118.2916
190611343,5/2/2019,2230,6,Hollywood,636,26,F,H,17,Liquor Laws,M,25658(A)BP,SALE/ETC OF ALCOHOLIC BEVERAGE TO MINOR,1700    VINE                         ST,,,34.1034,-118.3325
5620847,5/5/2019,2125,19,Mission,1987,21,M,H,22,Driving Under Influence,M,23152(A)VC,DRUNK DRIVING ALCOHOL/DRUGS,COMMUNITY,WOODMAN,,34.2228,-118.4327
191110120,5/5/2019,1800,11,Northeast,1177,42,M,H,18,Drunkeness,M,41.27(C)LAM,DRINKING IN PUBLIC,HURON,AVENUE 26,,34.0845,-118.2231
5620865,5/5/2019,2012,15,N Hollywood,1552,26,F,B,22,Driving Under Influence,M,23152(G)VC,DUI OF ALCOHOL & DRUG,ADDISON                      ST,DENNY                        AV,,34.1613,-118.3648
5621155,5/6/2019,755,1,Central,157,41,F,B,16,Narcotic Drug Laws,F,4573.8PC,POSS DRUGS/ALCOHOLIC BEV:PRISON/JAIL,5TH,SAN PEDRO,,34.0435,-118.2427
5621871,5/6/2019,2300,19,Mission,1969,39,M,H,22,Driving Under Influence,M,23152(F)VC,DUI OF ANY DRUG,9200    ARLETA                       AV,,,34.2372,-118.4209
5622093,5/7/2019,900,1,Central,119,36,M,H,22,Driving Under Influence,M,23152(B)VC,DRUNK DRIVING .10 OR ABOVE,800 N  VIGNES                       ST,,,34.0559,-118.232
5619649,5/4/2019,700,14,Pacific,1493,26,M,H,22,Driving Under Influence,M,23152(A)VC,DRUNK DRIVING ALCOHOL/DRUGS,VISTADELMAR                  ST,IMPERIAL                     BL,,33.9234,-118.4285
5620299,5/5/2019,50,10,West Valley,1009,43,M,H,22,Driving Under Influence,M,23152(A)VC,DRUNK DRIVING ALCOHOL/DRUGS,ROSCOE,WOODLEY,,34.2214,-118.4837
5620205,5/4/2019,2116,10,West Valley,1009,56,M,H,22,Driving Under Influence,M,23152(F)VC,DUI OF ANY DRUG,ROSCOE,WOODLEY,,34.2214,-118.4837
190112952,5/3/2019,1440,1,Central,156,60,M,B,17,Liquor Laws,M,25620BP,OPEN ALCOHOLIC BEV IN PUBLIC PARK/PLACE,7TH                          ST,SAN JULIAN,,34.0437,-118.2455
191009436,5/5/2019,2300,10,West Valley,1065,59,M,B,17,Liquor Laws,M,25620BP,OPEN ALCOHOLIC BEV IN PUBLIC PARK/PLACE,5100    ZELZAH                       AV,,,34.167,-118.522
190113178,5/6/2019,1020,1,Central,157,61,M,B,17,Liquor Laws,M,25620BP,OPEN ALCOHOLIC BEV IN PUBLIC PARK/PLACE,6TH                          ST,SAN PEDRO,,34.0417,-118.2443
5623301,5/8/2019,1240,21,Topanga,2185,32,F,W,22,Driving Under Influence,M,23152(A)VC,DRUNK DRIVING ALCOHOL/DRUGS,VENTURA                      FY,VALLEY CIRCLE,,34.1592,-118.6108
190112954,5/4/2019,1025,1,Central,148,48,M,B,17,Liquor Laws,M,25620BP,OPEN ALCOHOLIC BEV IN PUBLIC PARK/PLACE,4TH                          ST,OMAR,,34.0454,-118.2422
190809598,5/9/2019,1950,8,West LA,884,26,M,H,18,Drunkeness,M,41.27CLAMC,DRINKING IN PUBLIC,MILITARY,PICO,,34.0377,-118.4326
5619543,5/4/2019,210,1,Central,159,60,M,H,22,Driving Under Influence,M,23152(A)VC,DRUNK DRIVING ALCOHOL/DRUGS,600 S  SANTA FE                     AV,,,34.0383,-118.2305
5622990,5/8/2019,440,5,Harbor,567,43,M,H,22,Driving Under Influence,M,23152(A)VC,DRUNK DRIVING ALCOHOL/DRUGS,400 W  20TH                         ST,,,33.7261,-118.2858
191412061,5/9/2019,1730,14,Pacific,1452,22,F,H,17,Liquor Laws,I,25620(A)BP,DRINKING ALCOHOL,WASHINGTON,OCEAN FRONT                  WK,,33.9791,-118.4669
5621096,5/6/2019,337,3,Southwest,303,49,M,H,22,Driving Under Influence,M,23152(A)VC,DRUNK DRIVING ALCOHOL/DRUGS,10 FREEWAY,LA BREA,,34.0334,-118.3523
190112945,5/2/2019,815,1,Central,158,62,M,B,17,Liquor Laws,M,25620BP,OPEN ALCOHOLIC BEV IN PUBLIC PARK/PLACE,7TH                          ST,CERES,,34.038,-118.243
190409462,4/25/2019,1630,4,Hollenbeck,423,49,M,H,17,Liquor Laws,M,25620BP,OPEN ALCOHOLIC BEV IN PUBLIC PARK/PLACE,ALHAMBRA                     AV,JOHNSTON                     AV,,34.0645,-118.2102
191009633,4/28/2019,1230,10,West Valley,1039,34,M,H,18,Drunkeness,M,41.27CLAMC,DRINKING IN PUBLIC,GLORIA                       AV,VANOWEN                      ST,,34.1939,-118.4793
190211040,5/9/2019,1710,2,Rampart,245,48,M,H,18,Drunkeness,M,41.27CLAMC,DRINKING IN PUBLIC,2200 W  6TH                          ST,,,34.0601,-118.2761
190809628,5/10/2019,1745,8,West LA,884,57,M,W,18,Drunkeness,M,41.27(C)LAM,DRINKING IN PUBLIC,PICO                         BL,SAWTELLE                     AV,,34.0347,-118.4397
5620276,5/5/2019,16,13,Newton,1362,42,M,H,22,Driving Under Influence,M,23152(A)VC,DRUNK DRIVING ALCOHOL/DRUGS,AVALON,51ST,,33.9966,-118.2652
190509515,5/5/2019,1230,5,Harbor,506,35,M,B,17,Liquor Laws,M,25658(A)BP,SALE/ETC OF ALCOHOLIC BEVERAGE TO MINOR,1600 W  CARSON                       ST,,,33.8315,-118.3065
192010341,5/3/2019,1830,20,Olympic,2055,18,M,H,17,Liquor Laws,M,25658(A)BP,SALE/ETC OF ALCOHOLIC BEVERAGE TO MINOR,2900 W  OLYMPIC                      BL,,,34.0526,-118.2979
5619915,5/4/2019,1830,3,Southwest,392,51,M,H,22,Driving Under Influence,M,23152(A)VC,DRUNK DRIVING ALCOHOL/DRUGS,2ND                          AV,48TH                         ST,,34.0001,-118.3192
5621050,5/6/2019,334,7,Wilshire,755,29,M,B,22,Driving Under Influence,M,23152(A)VC,DRUNK DRIVING ALCOHOL/DRUGS,SANTA MONICA                 FY,LA BREA,,34.051,-118.3538
190211051,5/7/2019,1440,2,Rampart,245,57,M,H,17,Liquor Laws,M,25620BP,OPEN ALCOHOLIC BEV IN PUBLIC PARK/PLACE,2200 W  6TH                          ST,,,34.0601,-118.2761
5622527,5/7/2019,2040,20,Olympic,2076,36,M,H,22,Driving Under Influence,M,23152(A)VC,DRUNK DRIVING ALCOHOL/DRUGS,PICO,DEWEY,,34.0473,-118.2958
5621596,5/6/2019,1400,2,Rampart,211,59,M,H,22,Driving Under Influence,M,23152(A)VC,DRUNK DRIVING ALCOHOL/DRUGS,4300    MELROSE                      AV,,,34.0836,-118.294
190112876,4/8/2019,2030,1,Central,174,31,M,B,18,Drunkeness,M,41.27CLAMC,DRINKING IN PUBLIC,8TH,BROADWAY,,34.0426,-118.2528
191110119,5/5/2019,1800,11,Northeast,1177,37,M,H,18,Drunkeness,M,41.27(C)LAM,DRINKING IN PUBLIC,HURON,AVENUE 26,,34.0845,-118.2231
190112881,4/30/2019,2312,1,Central,164,33,M,W,17,Liquor Laws,I,25620ABP,DRINKING ALCOHOL,11TH,SANTEE,,34.0446,-118.2507
5620336,5/5/2019,120,21,Topanga,2172,26,F,H,22,Driving Under Influence,M,23152(A)VC,DRUNK DRIVING ALCOHOL/DRUGS,VENTURA                      BL,N  VENTURA                      FY,,34.1626,-118.638
190910386,4/28/2019,1410,9,Van Nuys,926,31,M,H,17,Liquor Laws,M,25620BP,OPEN ALCOHOLIC BEV IN PUBLIC PARK/PLACE,14400    VICTORY                      BL,,,34.1903,-118.4399
5620277,5/4/2019,2330,7,Wilshire,758,50,F,O,22,Driving Under Influence,M,23152(A)VC,DRUNK DRIVING ALCOHOL/DRUGS,CRENSHAW,OLYMPIC,,34.0519,-118.3306
190211064,5/7/2019,1730,2,Rampart,245,38,M,B,17,Liquor Laws,M,25620BP,OPEN ALCOHOLIC BEV IN PUBLIC PARK/PLACE,6TH                          ST,WESTLAKE,,34.061,-118.2775
5620812,5/5/2019,1540,1,Central,191,45,M,H,22,Driving Under Influence,M,23152(F)VC,DUI OF ANY DRUG,GLENDALE                     FY,VERDUGO,,34.0388,-118.2717
5620193,5/4/2019,2105,10,West Valley,1009,66,M,H,22,Driving Under Influence,M,23152(A)VC,DRUNK DRIVING ALCOHOL/DRUGS,ROSCOE,WOODLEY,,34.2214,-118.4837
5620940,5/6/2019,17,15,N Hollywood,1512,23,M,W,22,Driving Under Influence,M,23152(A)VC,DRUNK DRIVING ALCOHOL/DRUGS,SHERMAN                      WY,BELLAIRE,,34.2012,-118.4094
5620676,5/5/2019,1535,18,Southeast,1824,32,M,H,22,Driving Under Influence,M,23152(A)VC,DRUNK DRIVING ALCOHOL/DRUGS,CENTRAL                      AV,CENTURY                      BL,,33.9457,-118.2541
5619494,5/4/2019,50,11,Northeast,1158,73,M,B,22,Driving Under Influence,M,23152(A)VC,DRUNK DRIVING ALCOHOL/DRUGS,MARMION                      WY,FIGUEROA                     ST,,34.0908,-118.2115
5620749,5/5/2019,1730,13,Newton,1363,34,M,H,22,Driving Under Influence,M,23152(F)VC,DUI OF ANY DRUG,CENTRAL,49TH                         PL,,33.9985,-118.2565
5620379,5/5/2019,130,19,Mission,1963,26,M,H,22,Driving Under Influence,M,23152(A)VC,DRUNK DRIVING ALCOHOL/DRUGS,PLUMMER,SYLMAR,,34.2427,-118.448
190809627,5/10/2019,1745,8,West LA,884,59,M,W,18,Drunkeness,M,41.27(C)LAM,DRINKING IN PUBLIC,PICO                         BL,SAWTELLE                     AV,,34.0347,-118.4397
190113180,5/5/2019,1035,1,Central,138,42,M,W,17,Liquor Laws,M,25620BP,OPEN ALCOHOLIC BEV IN PUBLIC PARK/PLACE,200 S  SAN PEDRO                    ST,,,34.0493,-118.2418
190509468,5/5/2019,1130,5,Harbor,506,61,F,O,17,Liquor Laws,M,25658(A)BP,SALE/ETC OF ALCOHOLIC BEVERAGE TO MINOR,1600 W  CARSON                       ST,,,33.8315,-118.3065
191110011,5/1/2019,1535,11,Northeast,1179,54,M,H,17,Liquor Laws,M,25620BP,OPEN ALCOHOLIC BEV IN PUBLIC PARK/PLACE,FIGUEROA,AVENUE 39,,34.0912,-118.2111
190112948,5/2/2019,1315,1,Central,157,57,M,B,17,Liquor Laws,M,25620BP,OPEN ALCOHOLIC BEV IN PUBLIC PARK/PLACE,5TH                          ST,SAN PEDRO,,34.0435,-118.2427
190113174,5/6/2019,2030,1,Central,166,55,F,B,18,Drunkeness,M,41.27CLAMC,DRINKING IN PUBLIC,600 S  SAN PEDRO                    ST,,,34.0421,-118.2469
5622595,5/7/2019,2255,2,Rampart,221,49,M,H,22,Driving Under Influence,M,23152(A)VC,DRUNK DRIVING ALCOHOL/DRUGS,VERMONT,OAKWOOD,,34.0777,-118.2917
5620255,5/4/2019,2345,13,Newton,1362,32,M,H,22,Driving Under Influence,M,23152(A)VC,DRUNK DRIVING ALCOHOL/DRUGS,AVALON,51ST,,33.9966,-118.2652
192010254,5/5/2019,1440,20,Olympic,2002,30,M,H,18,Drunkeness,M,41.27(C)LAM,DRINKING IN PUBLIC,MAPLEWOOD,SAINT ANDREWS,,34.0803,-118.3112
192010347,5/3/2019,1830,20,Olympic,2039,49,F,A,17,Liquor Laws,M,25658(A)BP,SALE/ETC OF ALCOHOLIC BEVERAGE TO MINOR,600 S  HOOVER                       ST,,,34.0598,-118.2865
5619873,5/4/2019,1705,4,Hollenbeck,456,51,M,H,22,Driving Under Influence,M,23152(A)VC,DRUNK DRIVING ALCOHOL/DRUGS,800 N  FOREST                       AV,,,34.0489,-118.199
5619741,5/4/2019,1300,18,Southeast,1824,59,M,B,22,Driving Under Influence,M,23152(A)VC,DRUNK DRIVING ALCOHOL/DRUGS,AVALON,104TH,,33.9419,-118.2652
5620181,5/4/2019,2050,13,Newton,1367,43,M,O,22,Driving Under Influence,M,23152(B)VC,DRUNK DRIVING .10 OR ABOVE,51ST,HOLMES,,33.9962,-118.2411
192109781,5/3/2019,1430,21,Topanga,2146,53,M,H,17,Liquor Laws,M,25620BP,OPEN ALCOHOLIC BEV IN PUBLIC PARK/PLACE,SHERMAN                      WY,MILWOOD                      AV,,34.201,-118.5943
5620692,5/5/2019,1549,13,Newton,1375,44,M,H,22,Driving Under Influence,M,23152(A)VC,DRUNK DRIVING ALCOHOL/DRUGS,ASCOT                        AV,55TH,,33.993,-118.2499
5620607,5/5/2019,1330,16,Foothill,1657,54,M,O,22,Driving Under Influence,M,23152(A)VC,DRUNK DRIVING ALCOHOL/DRUGS,TUJUNGA CANYON,COMMERCE,,34.2502,-118.2886
5620989,5/6/2019,52,4,Hollenbeck,455,58,M,H,22,Driving Under Influence,M,23152(A)VC,DRUNK DRIVING ALCOHOL/DRUGS,SOTO                         ST,WABASH                       ST,,34.053,-118.2038
5622511,5/7/2019,2025,3,Southwest,317,34,M,H,22,Driving Under Influence,M,23152(B)VC,DRUNK DRIVING .10 OR ABOVE,CATALINA,22ND,,34.0356,-118.2943
5619942,5/4/2019,2006,13,Newton,1362,40,M,H,22,Driving Under Influence,M,23152(A)VC,DRUNK DRIVING ALCOHOL/DRUGS,AVALON,51ST                         ST,,33.9966,-118.2652
5620834,5/5/2019,2015,19,Mission,1994,33,M,H,22,Driving Under Influence,M,23152(A)VC,DRUNK DRIVING ALCOHOL/DRUGS,TITUS                        AV,CEDROS                       ST,,34.2198,-118.4536
5620951,5/5/2019,2300,5,Harbor,562,27,M,H,22,Driving Under Influence,M,23152(A)VC,DRUNK DRIVING ALCOHOL/DRUGS,1100 W  9TH                          ST,,,33.7361,-118.3012
5620586,5/5/2019,1145,16,Foothill,1653,23,M,W,22,Driving Under Influence,M,23152(F)VC,DUI OF ANY DRUG,TELFAIR,OSBORNE,,34.2524,-118.4137
191510489,5/1/2019,2010,15,N Hollywood,1526,47,M,H,18,Drunkeness,M,41.27CLAMC,DRINKING IN PUBLIC,VICTORY                      BL,LANKERSHIM                   BL,,34.1867,-118.3878
192109787,5/7/2019,1420,21,Topanga,2136,42,M,H,17,Liquor Laws,M,25620BP,OPEN ALCOHOLIC BEV IN PUBLIC PARK/PLACE,ALABAMA                      AV,SHERMAN                      WY,,34.201,-118.599
190211114,5/10/2019,1540,2,Rampart,245,41,M,H,17,Liquor Laws,M,25620BP,OPEN ALCOHOLIC BEV IN PUBLIC PARK/PLACE,2200 W  6TH                          ST,,,34.0601,-118.2761
5619967,5/4/2019,2011,10,West Valley,1017,34,M,H,22,Driving Under Influence,M,23152(A)VC,DRUNK DRIVING ALCOHOL/DRUGS,17400    SATICOY                      ST,,,34.2084,-118.5121
5620696,5/5/2019,1618,16,Foothill,1611,45,M,H,22,Driving Under Influence,M,21200.5VC,DUI ALCOHOL/DRUGS ON BICYCLE,GLENOAKS                     BL,DESMOND,,34.2826,-118.4212
5622604,5/7/2019,2324,17,Devonshire,1717,26,M,O,22,Driving Under Influence,M,23152(A)VC,DRUNK DRIVING ALCOHOL/DRUGS,BALBOA,RINALDI,,34.2793,-118.5021
5622569,5/7/2019,2154,14,Pacific,1407,51,F,W,22,Driving Under Influence,M,23152(A)VC,DRUNK DRIVING ALCOHOL/DRUGS,REGENT                       ST,MOTOR,,34.0227,-118.4057
5620647,5/5/2019,1535,16,Foothill,1656,30,M,W,22,Driving Under Influence,M,23152(F)VC,DUI OF ANY DRUG,7900    FOOTHILL                     BL,,,34.2596,-118.3049
5621619,5/6/2019,1557,14,Pacific,1403,24,M,H,22,Driving Under Influence,M,23152(A)VC,DRUNK DRIVING ALCOHOL/DRUGS,I10,OVERLAND,,34.0301,-118.4272
5622036,5/7/2019,900,9,Van Nuys,935,35,M,W,22,Driving Under Influence,M,23153(A)VC,DUI ALCOHOL CAUSING INJURY,14400    ERWIN                        ST,,,34.1837,-118.4465
5620493,5/5/2019,725,9,Van Nuys,901,29,M,H,22,Driving Under Influence,M,23152(A)VC,DRUNK DRIVING ALCOHOL/DRUGS,SEPULVEDA                    BL,SATICOY,,34.2085,-118.4662
190113185,5/7/2019,1040,1,Central,158,53,M,H,17,Liquor Laws,M,25620BP,OPEN ALCOHOLIC BEV IN PUBLIC PARK/PLACE,7TH                          ST,GLADYS,,34.0387,-118.2439
191412076,5/2/2019,1425,14,Pacific,1412,35,M,W,17,Liquor Laws,I,25620(A)BP,DRINKING ALCOHOL,SPEEDWAY                     AV,WAVECREST,,33.9898,-118.4756
5622484,5/7/2019,1935,10,West Valley,1079,28,M,H,22,Driving Under Influence,M,23152(A)VC,DRUNK DRIVING ALCOHOL/DRUGS,VENTURA                      FY,HASKELL                      AV,,34.1552,-118.4749
190211110,5/10/2019,1640,2,Rampart,245,39,M,H,17,Liquor Laws,M,25620BP,OPEN ALCOHOLIC BEV IN PUBLIC PARK/PLACE,2200 W  6TH                          ST,,,34.0601,-118.2761
190112877,4/27/2019,2020,1,Central,195,39,M,H,18,Drunkeness,M,41.27CLAMC,DRINKING IN PUBLIC,LOS ANGELES,PICO,,34.0357,-118.2593
191412064,5/7/2019,1335,14,Pacific,1412,57,M,W,17,Liquor Laws,I,25620(A)BP,DRINKING ALCOHOL,MAIN                         ST,WESTMINSTER                  AV,,33.9901,-118.4726
5619596,5/4/2019,505,6,Hollywood,667,39,F,H,22,Driving Under Influence,M,23152(A)VC,DRUNK DRIVING ALCOHOL/DRUGS,SUNSET,BRONSON,,34.0981,-118.318
190611328,4/26/2019,1900,6,Hollywood,646,28,M,H,17,Liquor Laws,I,25620(A)BP,DRINKING ALCOHOL,WILCOX                       AV,SELMA,,34.0998,-118.331
191110124,5/6/2019,1430,11,Northeast,1124,40,M,H,18,Drunkeness,M,41.27(C)LAM,DRINKING IN PUBLIC,3200    FLETCHER                     DR,,,34.1167,-118.2432
5620270,5/4/2019,2340,7,Wilshire,758,49,F,W,22,Driving Under Influence,M,23152(A)VC,DRUNK DRIVING ALCOHOL/DRUGS,CRENSHAW,OLYMPIC,,34.0519,-118.3306
5619431,5/3/2019,2250,14,Pacific,1451,30,M,H,17,Liquor Laws,M,25620BP,OPEN ALCOHOLIC BEV IN PUBLIC PARK/PLACE,OCEAN FRONT                  WK,VENICE                       BL,,33.9695,-118.4606
5620801,5/5/2019,1905,19,Mission,1915,50,M,H,22,Driving Under Influence,M,23152(A)VC,DRUNK DRIVING ALCOHOL/DRUGS,POLK,DE GARMO,,34.3063,-118.4512
5620380,5/4/2019,2310,12,77th Street,1208,25,M,H,22,Driving Under Influence,M,23152(F)VC,DUI OF ANY DRUG,VERNON,FLOWER,,33.9997,-118.2849
5619470,5/3/2019,2310,16,Foothill,1601,19,M,H,22,Driving Under Influence,M,23152(F)VC,DUI OF ANY DRUG,FELLOWS                      AV,DESMOND                      ST,,34.2831,-118.4187
5619077,5/3/2019,1400,11,Northeast,1123,66,M,B,22,Driving Under Influence,M,23152(F)VC,DUI OF ANY DRUG,2900    GLENDALE                     BL,,,34.1207,-118.2641
5620229,5/4/2019,2139,20,Olympic,2024,63,M,B,22,Driving Under Influence,M,21200.5VC,DUI ALCOHOL/DRUGS ON BICYCLE,NORMANDIE,VENICE,,34.0636,-118.3047
191110012,5/1/2019,1510,11,Northeast,1179,42,F,H,18,Drunkeness,M,41.27CLAMC,DRINKING IN PUBLIC,MARMION,ARROYO SECO,,34.0908,-118.2115
5620425,5/5/2019,225,13,Newton,1371,20,M,H,22,Driving Under Influence,M,23152(A)VC,DRUNK DRIVING ALCOHOL/DRUGS,5600 S  MAIN                         ST,,,33.9924,-118.2772
5620984,5/6/2019,120,19,Mission,1985,41,M,W,22,Driving Under Influence,M,23152(A)VC,DRUNK DRIVING ALCOHOL/DRUGS,ROSCOE                       BL,VAN NUYS                     BL,,34.2216,-118.4488
5621703,5/6/2019,1930,19,Mission,1956,31,M,H,22,Driving Under Influence,M,23152(B)VC,DRUNK DRIVING .10 OR ABOVE,DEVONSHIRE,WOODMAN,,34.2572,-118.4543
190113173,5/7/2019,1705,1,Central,141,33,M,H,17,Liquor Laws,M,25620BP,OPEN ALCOHOLIC BEV IN PUBLIC PARK/PLACE,4TH                          ST,FIGUEROA,,34.0535,-118.256
190113175,5/6/2019,2105,1,Central,156,52,M,B,17,Liquor Laws,M,25620BP,OPEN ALCOHOLIC BEV IN PUBLIC PARK/PLACE,5TH                          ST,WALL,,34.0446,-118.245
190312472,5/7/2019,2155,3,Southwest,378,54,M,B,18,Drunkeness,I,41.27CLAMC,DRINKING IN PUBLIC,MARTIN LUTHER KI             BL,VERMONT,,34.0146,-118.2872
190113202,5/9/2019,1150,1,Central,138,63,M,H,18,Drunkeness,M,41.27CLAMC,DRINKING IN PUBLIC,4TH,CROCKER,,34.0449,-118.2415
191110010,5/1/2019,1600,11,Northeast,1149,73,M,H,18,Drunkeness,M,41.27CLAMC,DRINKING IN PUBLIC,FIGUEROA,AVENUE 53,,34.1069,-118.1982
190112941,5/4/2019,1720,1,Central,195,53,M,H,17,Liquor Laws,M,25620BP,OPEN ALCOHOLIC BEV IN PUBLIC PARK/PLACE,1400 S  MAIN                         ST,,,34.035,-118.2615
191412082,4/21/2019,1400,14,Pacific,1412,34,M,H,17,Liquor Laws,I,25620(A)BP,DRINKING ALCOHOL,OCEAN FRONT                  WK,WAVECREST,,33.9933,-118.4765
190809641,5/11/2019,1230,8,West LA,884,30,M,B,18,Drunkeness,M,41.27(C)LAM,DRINKING IN PUBLIC,CORINTH,PICO,,34.0397,-118.4301
5619680,5/4/2019,940,12,77th Street,1245,30,M,H,22,Driving Under Influence,M,23152(A)VC,DRUNK DRIVING ALCOHOL/DRUGS,RAYMOND                      AV,60TH                         ST,,33.9789,-118.2981
190611208,5/3/2019,2115,6,Hollywood,679,31,M,H,17,Liquor Laws,M,25620BP,OPEN ALCOHOLIC BEV IN PUBLIC PARK/PLACE,SANTA MONICA                 BL,ARDMORE,,34.0908,-118.3019
190112949,5/2/2019,1310,1,Central,156,53,M,H,17,Liquor Laws,M,25620BP,OPEN ALCOHOLIC BEV IN PUBLIC PARK/PLACE,6TH                          ST,TOWNE,,34.0437,-118.2455
190113201,5/9/2019,1140,1,Central,146,56,M,B,17,Liquor Laws,I,25620ABP,DRINKING ALCOHOL,WALL,WINSTON,,34.0449,-118.2458
5619820,5/4/2019,1320,8,West LA,842,31,M,H,18,Drunkeness,M,647(F)PC,"DISORD CONDUCT:UI/DRUG, ALCOHOL",1200    BARRY                        AV,,,34.0501,-118.4601
5619458,5/4/2019,2,1,Central,185,18,M,H,22,Driving Under Influence,M,23140(A)VC,MINOR DRIVE W/BLOOD ALCOHOL OF 0.05%+,MAIN,11TH,,34.0391,-118.2581
5620403,5/5/2019,332,17,Devonshire,1708,41,M,O,22,Driving Under Influence,M,23152(A)VC,DRUNK DRIVING ALCOHOL/DRUGS,ROXFORD,GOLDEN STATE                 FY,,34.3031,-118.4801
190910504,5/8/2019,2210,9,Van Nuys,923,61,M,H,17,Liquor Laws,I,25620(A)BP,DRINKING ALCOHOL,6600    VAN NUYS                     BL,,,34.1903,-118.4574
190809604,5/9/2019,2005,8,West LA,842,63,M,B,18,Drunkeness,M,41.27CLAMC,DRINKING IN PUBLIC,WILSHIRE,BARRY,,34.0499,-118.4604
5618249,5/2/2019,2020,20,Olympic,2036,26,M,H,22,Driving Under Influence,M,23152(A)VC,DRUNK DRIVING ALCOHOL/DRUGS,700    BERENDO,,,34.0598,-118.2941
5620814,5/5/2019,1930,14,Pacific,1494,52,M,B,18,Drunkeness,M,647(F)PC,"DISORD CONDUCT:UI/DRUG, ALCOHOL",500    WORLD                        WY,,,33.9428,-118.4054
192010253,4/28/2019,1540,20,Olympic,2027,27,M,H,18,Drunkeness,M,41.27(C)LAM,DRINKING IN PUBLIC,NORMANDIE,S  8TH                          ST,,34.0636,-118.296
5620936,5/5/2019,2222,4,Hollenbeck,445,34,M,O,22,Driving Under Influence,M,23152(A)VC,DRUNK DRIVING ALCOHOL/DRUGS,SANTA MONICA                 FY,STATE,,34.0553,-118.2079
5621817,5/6/2019,2205,16,Foothill,1661,23,M,H,22,Driving Under Influence,M,23152(A)VC,DRUNK DRIVING ALCOHOL/DRUGS,9200    LAUREL CANYON                BL,,,34.237,-118.4116
190211048,5/7/2019,1625,2,Rampart,261,43,M,H,17,Liquor Laws,M,25620BP,OPEN ALCOHOLIC BEV IN PUBLIC PARK/PLACE,JAMES M WOOD,LAKE,,34.0541,-118.2804
5620213,5/4/2019,2130,13,Newton,1362,63,M,B,22,Driving Under Influence,M,23152(A)VC,DRUNK DRIVING ALCOHOL/DRUGS,AVALON,51ST,,33.9966,-118.2652
190611367,5/2/2019,2255,6,Hollywood,636,21,F,W,17,Liquor Laws,M,25658BP,SELL/LET MINOR CONSUME ALCOHOL,1700    VINE                         ST,,,34.1034,-118.3325
190910391,5/1/2019,1630,9,Van Nuys,926,29,M,W,18,Drunkeness,M,41.27(C)LAM,DRINKING IN PUBLIC,SYLMAR                       AV,KITTRIDGE                    ST,,34.1907,-118.4465
5620778,5/5/2019,1835,19,Mission,1984,36,M,H,22,Driving Under Influence,M,23152(A)VC,DRUNK DRIVING ALCOHOL/DRUGS,RAYEN                        ST,WILLIS                       AV,,34.2318,-118.4553
191412066,5/5/2019,1825,14,Pacific,1452,24,M,H,17,Liquor Laws,I,25620(A)BP,DRINKING ALCOHOL,WASHINGTON                   BL,OCEAN FRONT                  WK,,33.9791,-118.4669
191110214,5/7/2019,1220,11,Northeast,1149,50,F,W,18,Drunkeness,M,41.27CLAMC,DRINKING IN PUBLIC,FIGUEROA,AVENUE 52,,34.1063,-118.1995
190113183,5/5/2019,1450,1,Central,158,68,M,H,17,Liquor Laws,M,25620BP,OPEN ALCOHOLIC BEV IN PUBLIC PARK/PLACE,7TH                          ST,CERES,,34.038,-118.243
190211060,5/9/2019,1820,2,Rampart,236,30,M,H,17,Liquor Laws,I,25620(A)BP,DRINKING ALCOHOL,3RD                          ST,WESTLAKE                     AV,,34.0625,-118.2714
191110052,5/5/2019,1835,11,Northeast,1135,37,F,O,17,Liquor Laws,M,25620BP,OPEN ALCOHOLIC BEV IN PUBLIC PARK/PLACE,EAGLE ROCK,VERDUGO,,34.1187,-118.2318
190910388,5/3/2019,1630,9,Van Nuys,923,49,M,H,17,Liquor Laws,M,25620BP,OPEN ALCOHOLIC BEV IN PUBLIC PARK/PLACE,KITTRIDGE                    ST,VAN NUYS                     BL,,34.1907,-118.4487
190611331,4/26/2019,2045,6,Hollywood,645,30,M,H,17,Liquor Laws,I,25620(A)BP,DRINKING ALCOHOL,HOLLYWOOD                    BL,ORANGE                       DR,,34.1016,-118.3414
5620182,5/4/2019,2103,7,Wilshire,758,25,F,B,22,Driving Under Influence,M,23152(F)VC,DUI OF ANY DRUG,WESTERN,OLYMPIC,,34.0519,-118.3306
191510488,5/1/2019,2035,15,N Hollywood,1526,26,M,H,18,Drunkeness,M,41.27CLAMC,DRINKING IN PUBLIC,VICTORY                      BL,LANKERSHIM                   BL,,34.1867,-118.3878
192109782,5/3/2019,1455,21,Topanga,2136,29,M,H,17,Liquor Laws,M,25620BP,OPEN ALCOHOLIC BEV IN PUBLIC PARK/PLACE,SHERMAN                      WY,VARIEL                       AV,,34.201,-118.5928
5620889,5/5/2019,2125,13,Newton,1321,31,M,H,22,Driving Under Influence,M,23152(A)VC,DRUNK DRIVING ALCOHOL/DRUGS,FLOWER,21ST,,34.0317,-118.2721
192010248,4/28/2019,1550,20,Olympic,2027,76,M,H,18,Drunkeness,M,41.27(C)LAM,DRINKING IN PUBLIC,NORMANDIE,S  8TH                          ST,,34.0636,-118.296
5620829,5/5/2019,1800,13,Newton,1373,38,M,H,22,Driving Under Influence,M,23152(B)VC,DRUNK DRIVING .10 OR ABOVE,52ND                         ST,WADSWORTH,,33.9958,-118.2586
5620244,5/4/2019,2220,3,Southwest,334,56,M,H,22,Driving Under Influence,M,23152(A)VC,DRUNK DRIVING ALCOHOL/DRUGS,30TH                         ST,NORTON                       ST,,34.0276,-118.3327
5620486,5/5/2019,510,7,Wilshire,782,30,M,H,22,Driving Under Influence,M,23152(A)VC,DRUNK DRIVING ALCOHOL/DRUGS,DAVID                        AV,VENICE                       BL,,34.037,-118.3761
5622496,5/7/2019,2015,6,Hollywood,677,25,M,W,22,Driving Under Influence,M,23152(F)VC,DUI OF ANY DRUG,MELROSE                      AV,WILTON                       PL,,34.0835,-118.3135
5620767,5/5/2019,1645,5,Harbor,587,44,M,H,22,Driving Under Influence,M,23152(A)VC,DRUNK DRIVING ALCOHOL/DRUGS,40TH                         ST,PACIFIC                      AV,,33.7079,-118.2879
192010183,4/25/2019,2045,20,Olympic,2024,42,F,A,17,Liquor Laws,M,25607(A)BP,ALCOHOLIC BEV LICENSEE POSS UNAUTH LIQ,500 S  WESTERN                      AV,,,34.0654,-118.3091
5620634,5/5/2019,1146,20,Olympic,2062,37,M,O,22,Driving Under Influence,M,23152(F)VC,DUI OF ANY DRUG,GRAMERCY,11TH,,34.0509,-118.3133
5621517,5/6/2019,1445,9,Van Nuys,935,32,M,W,22,Driving Under Influence,M,23152(A)VC,DRUNK DRIVING ALCOHOL/DRUGS,14400    ERWIN                        ST,,,34.1837,-118.4465
191110118,5/5/2019,1800,11,Northeast,1177,45,M,H,18,Drunkeness,M,41.27(C)LAM,DRINKING IN PUBLIC,HURON,AVENUE 26,,34.0845,-118.2231
191110013,5/1/2019,1435,11,Northeast,1177,36,M,H,18,Drunkeness,M,41.27CLAMC,DRINKING IN PUBLIC,HURON,AVENUE 26,,34.0845,-118.2231
190112878,5/3/2019,1724,1,Central,159,24,M,H,17,Liquor Laws,I,25620ABP,DRINKING ALCOHOL,PALMETTO,SANTA FE,,34.0403,-118.2308
190910383,5/3/2019,1625,9,Van Nuys,923,61,M,H,18,Drunkeness,M,41.27(C)LAM,DRINKING IN PUBLIC,VAN NUYS                     BL,KITTRIDGE                    ST,,34.1907,-118.4487
190611525,5/8/2019,1800,6,Hollywood,645,26,M,B,17,Liquor Laws,I,25620(A)BP,DRINKING ALCOHOL,SUNSET                       BL,LA BREA,,34.098,-118.3441
190211042,5/9/2019,1735,2,Rampart,245,42,M,H,17,Liquor Laws,M,25620BP,OPEN ALCOHOLIC BEV IN PUBLIC PARK/PLACE,2200 W  6TH                          ST,,,34.0601,-118.2761
5620722,5/5/2019,1732,13,Newton,1317,36,M,H,22,Driving Under Influence,M,23152(A)VC,DRUNK DRIVING ALCOHOL/DRUGS,LONG BEACH,NEWTON,,34.0243,-118.2419
5619327,5/3/2019,2152,1,Central,162,37,M,B,22,Driving Under Influence,M,23152(A)VC,DRUNK DRIVING ALCOHOL/DRUGS,FIGUEROA,9TH                          ST,,34.0462,-118.2628
190113205,5/9/2019,1039,1,Central,156,60,M,B,17,Liquor Laws,I,25620ABP,DRINKING ALCOHOL,4TH,SAN PEDRO,,34.0437,-118.2455
191110009,5/1/2019,1535,11,Northeast,1179,54,F,H,18,Drunkeness,M,41.27CLAMC,DRINKING IN PUBLIC,FIGUEROA,MARMION,,34.091,-118.2113
190112942,5/4/2019,1535,1,Central,128,40,M,H,18,Drunkeness,M,41.27CLAMC,DRINKING IN PUBLIC,2ND                          ST,LOS ANGELES,,34.0493,-118.2418
5619928,5/4/2019,1850,3,Southwest,335,45,M,B,22,Driving Under Influence,M,23152(A)VC,DRUNK DRIVING ALCOHOL/DRUGS,MARTIN LUTHER KING           BL,ST ANDREWS                   ST,,34.0276,-118.3229
190910505,5/8/2019,935,9,Van Nuys,923,66,M,H,17,Liquor Laws,I,25620(A)BP,DRINKING ALCOHOL,GILMORE,VAN NUYS,,34.1877,-118.4487
5620177,5/4/2019,2105,10,West Valley,1035,32,M,H,22,Driving Under Influence,M,23152(A)VC,DRUNK DRIVING ALCOHOL/DRUGS,VICTORY,WHITE OAK,,34.1866,-118.5185
191110123,5/6/2019,1500,11,Northeast,1177,29,M,H,18,Drunkeness,M,41.27(C)LAM,DRINKING IN PUBLIC,AVENUE 26,IDELL,,34.086,-118.2248
5622067,5/7/2019,445,3,Southwest,399,52,M,O,22,Driving Under Influence,M,23152(A)VC,DRUNK DRIVING ALCOHOL/DRUGS,HARBOR                       FY,VERNON,,34.0038,-118.2813
5622737,5/8/2019,125,5,Harbor,564,24,F,H,22,Driving Under Influence,M,23152(A)VC,DRUNK DRIVING ALCOHOL/DRUGS,400 W  7TH                          ST,,,33.7379,-118.2857
190611210,5/5/2019,1845,6,Hollywood,678,33,M,H,18,Drunkeness,M,41.27(C)LAM,DRINKING IN PUBLIC,OXFORD,SANTA MONICA                 BL,,34.0908,-118.3078
190112939,5/4/2019,1235,1,Central,185,55,M,B,17,Liquor Laws,M,25620BP,OPEN ALCOHOLIC BEV IN PUBLIC PARK/PLACE,11TH                         ST,LOS ANGELES,,34.0381,-118.2566
5621833,5/6/2019,2258,16,Foothill,1687,22,M,H,22,Driving Under Influence,M,23152(A)VC,DRUNK DRIVING ALCOHOL/DRUGS,CLEON                        AV,STRATHERN                    ST,,34.2157,-118.3682
192010249,5/1/2019,1000,20,Olympic,2053,18,M,H,17,Liquor Laws,M,25620BP,OPEN ALCOHOLIC BEV IN PUBLIC PARK/PLACE,WESTERN,OLYMPIC,,34.0527,-118.3091
192010257,4/8/2019,1445,20,Olympic,2016,48,M,H,18,Drunkeness,M,41.27(C)LAM,DRINKING IN PUBLIC,3800 W  3RD                          ST,,,34.0709,-118.2985
191412063,5/7/2019,1335,14,Pacific,1412,52,M,B,17,Liquor Laws,I,25620(A)BP,DRINKING ALCOHOL,WESTMINSTER                  AV,MAIN                         ST,,33.9911,-118.471
5621090,5/6/2019,545,13,Newton,1381,28,M,H,22,Driving Under Influence,M,23152(A)VC,DRUNK DRIVING ALCOHOL/DRUGS,SLAUSON,BROADWAY,,33.9892,-118.2783
190113172,5/8/2019,1550,1,Central,166,49,M,B,17,Liquor Laws,M,25620BP,OPEN ALCOHOLIC BEV IN PUBLIC PARK/PLACE,6TH                          ST,SAN PEDRO,,34.0423,-118.2452
5619266,5/3/2019,1945,16,Foothill,1675,42,M,H,22,Driving Under Influence,M,23152(A)VC,DRUNK DRIVING ALCOHOL/DRUGS,TUXFORD                      ST,BRADLEY                      AV,,34.2306,-118.3768
191311162,5/9/2019,1225,13,Newton,1307,47,M,H,18,Drunkeness,M,41.27CLAMC,DRINKING IN PUBLIC,8TH,TOWNE,,34.0372,-118.2476
5620678,5/5/2019,1600,13,Newton,1325,42,M,H,22,Driving Under Influence,M,23152(A)VC,DRUNK DRIVING ALCOHOL/DRUGS,33RD                         ST,NAOMI,,34.0137,-118.2541
191510487,5/1/2019,2035,15,N Hollywood,1526,41,M,H,18,Drunkeness,M,41.27CLAMC,DRINKING IN PUBLIC,VICTORY                      BL,LANKERSHIM                   BL,,34.1867,-118.3878
5619888,5/4/2019,1825,15,N Hollywood,1504,32,M,H,22,Driving Under Influence,M,23152(A)VC,DRUNK DRIVING ALCOHOL/DRUGS,BEN                          ST,SATICOY                      AV,,34.2045,-118.392
192010251,4/25/2019,2300,20,Olympic,2071,61,M,H,18,Drunkeness,M,41.27(C)LAM,DRINKING IN PUBLIC,VENICE,MANHATTAN                    PL,,34.0436,-118.3101
5620910,5/5/2019,2225,12,77th Street,1249,34,M,O,22,Driving Under Influence,M,23152(A)VC,DRUNK DRIVING ALCOHOL/DRUGS,HOOVER                       ST,65TH                         ST,,33.9806,-118.287
191412067,5/5/2019,1700,14,Pacific,1412,32,M,H,17,Liquor Laws,I,25620(A)BP,DRINKING ALCOHOL,OCEAN FRONT                  WK,DUDLEY                       AV,,33.994,-118.4798
5620301,5/5/2019,39,17,Devonshire,1717,47,M,H,22,Driving Under Influence,M,23152(A)VC,DRUNK DRIVING ALCOHOL/DRUGS,HAYVENHURST                  ST,REGAN                        FY,,34.2761,-118.4906
5620220,5/4/2019,2110,20,Olympic,2045,20,M,H,22,Driving Under Influence,M,23152(F)VC,DUI OF ANY DRUG,OLYMPIC,5TH,,34.0561,-118.2981
192109783,5/7/2019,1420,21,Topanga,2147,69,M,H,17,Liquor Laws,M,25620BP,OPEN ALCOHOLIC BEV IN PUBLIC PARK/PLACE,21000    SHERMAN                      WY,,,34.201,-118.5906
190611366,5/2/2019,2340,6,Hollywood,636,22,M,H,17,Liquor Laws,M,25658BP,SELL/LET MINOR CONSUME ALCOHOL,1700    VINE                         ST,,,34.1034,-118.3325
5621558,5/6/2019,1115,5,Harbor,566,54,F,H,22,Driving Under Influence,M,21200.5VC,DUI ALCOHOL/DRUGS ON BICYCLE,11TH                         ST,PALOS VERDES,,33.7342,-118.2814
192010343,5/3/2019,1735,20,Olympic,2056,58,M,H,17,Liquor Laws,M,25658(A)BP,SALE/ETC OF ALCOHOLIC BEVERAGE TO MINOR,1100 S  VERMONT                      AV,,,34.0509,-118.2937
5617041,5/1/2019,2100,12,77th Street,1218,55,M,B,22,Driving Under Influence,F,23152(A)VC,DUI ALCOHOL/DRUG W/PRIORS,53RD                         ST,FIGUEROA                     ST,,33.9942,-118.2827
5619632,5/4/2019,145,7,Wilshire,738,30,M,O,22,Driving Under Influence,M,23152(F)VC,DUI OF ANY DRUG,300 S  HUDSON                       AV,,,34.0689,-118.3321
5620415,5/5/2019,130,13,Newton,1372,19,M,H,22,Driving Under Influence,M,23152(A)VC,DRUNK DRIVING ALCOHOL/DRUGS,55TH                         ST,MAIN,,33.9924,-118.2739
191110248,5/8/2019,1900,11,Northeast,1138,18,M,H,17,Liquor Laws,M,25662(A)BP,MINOR IN POSSESSION OF ALCOHOLIC BEVERAGE,FIGUEROA,PIEDMONT,,34.1141,-118.1861
5620199,5/4/2019,2120,13,Newton,1362,52,M,H,22,Driving Under Influence,M,23152(A)VC,DRUNK DRIVING ALCOHOL/DRUGS,AVALON,51ST,,33.9966,-118.2652
190113184,5/5/2019,1405,1,Central,158,85,M,H,17,Liquor Laws,M,25620BP,OPEN ALCOHOLIC BEV IN PUBLIC PARK/PLACE,6TH                          ST,STANFORD,,34.0403,-118.2421
191110116,5/6/2019,1630,11,Northeast,1163,62,M,H,18,Drunkeness,M,41.27(C)LAM,DRINKING IN PUBLIC,SANTA MONICA,BERENDO,,34.0909,-118.2939
5620347,5/5/2019,45,1,Central,127,26,M,H,18,Drunkeness,M,647(F)PC,"DISORD CONDUCT:UI/DRUG, ALCOHOL",800    UNION STATION,,,34.0527,-118.2398
190809603,5/9/2019,2005,8,West LA,842,56,M,H,18,Drunkeness,M,41.27CLAMC,DRINKING IN PUBLIC,WILSHIRE,BARRY,,34.0499,-118.4604
191510491,4/30/2019,1100,15,N Hollywood,1596,55,M,W,17,Liquor Laws,I,25620(A)BP,DRINKING ALCOHOL,10900    VENTURA                      BL,,,34.1394,-118.3675
191510506,4/24/2019,1020,15,N Hollywood,1543,69,M,B,17,Liquor Laws,I,25620(A)BP,DRINKING ALCOHOL,LAUREL CANYON                BL,CHANDLER                     BL,,34.1687,-118.3965
5621785,5/6/2019,2130,14,Pacific,1494,31,M,W,18,Drunkeness,M,647(F)PC,"DISORD CONDUCT:UI/DRUG, ALCOHOL",500    WORLD                        WY,,,33.9428,-118.4054
190112951,5/3/2019,1340,1,Central,158,41,M,B,17,Liquor Laws,M,25620BP,OPEN ALCOHOLIC BEV IN PUBLIC PARK/PLACE,7TH                          ST,GLADYS,,34.0387,-118.2439
190112885,5/2/2019,718,1,Central,185,60,M,B,17,Liquor Laws,I,25620ABP,DRINKING ALCOHOL,9TH,FLOWER,,34.0388,-118.2574
190211037,5/9/2019,1600,2,Rampart,245,39,M,W,17,Liquor Laws,M,25620BP,OPEN ALCOHOLIC BEV IN PUBLIC PARK/PLACE,2200 W  6TH                          ST,,,34.0601,-118.2761
5620703,5/5/2019,1710,19,Mission,1956,29,M,H,22,Driving Under Influence,M,23152(A)VC,DRUNK DRIVING ALCOHOL/DRUGS,LEMONA                       AV,DEVONSHIRE,,34.2573,-118.4586
190611330,4/26/2019,1930,6,Hollywood,666,27,M,W,17,Liquor Laws,I,25620(A)BP,DRINKING ALCOHOL,CAHUENGA                     BL,SELMA,,34.0944,-118.3277
5622673,5/8/2019,202,17,Devonshire,1797,27,M,H,22,Driving Under Influence,M,23152(A)VC,DRUNK DRIVING ALCOHOL/DRUGS,PARTHENIA,HAYVENHURST,,34.2285,-118.4939
5620288,5/5/2019,30,3,Southwest,356,36,M,H,22,Driving Under Influence,M,23152(A)VC,DRUNK DRIVING ALCOHOL/DRUGS,JEFFERSON                    BL,WESTERN                      AV,,34.0256,-118.3089
190910389,4/29/2019,955,9,Van Nuys,923,45,M,W,17,Liquor Laws,M,25620BP,OPEN ALCOHOLIC BEV IN PUBLIC PARK/PLACE,6600    VAN NUYS                     BL,,,34.1903,-118.4574
5620769,5/5/2019,1950,18,Southeast,1822,38,M,H,22,Driving Under Influence,M,23152(G)VC,DUI OF ALCOHOL & DRUG,94TH                         ST,MAIN                         ST,,33.951,-118.2739
5621030,5/6/2019,357,21,Topanga,2177,26,M,H,22,Driving Under Influence,M,23152(A)VC,DRUNK DRIVING ALCOHOL/DRUGS,DE SOTO                      AV,VICTORY                      BL,,34.174,-118.5888
191110014,5/1/2019,1455,11,Northeast,1177,48,M,H,18,Drunkeness,M,41.27CLAMC,DRINKING IN PUBLIC,AVENUE 26,HURON,,34.0853,-118.224
5619352,5/3/2019,2140,1,Central,162,39,M,H,22,Driving Under Influence,M,23152(A)VC,DRUNK DRIVING ALCOHOL/DRUGS,FIGUEROA,9TH                          ST,,34.0462,-118.2628
5621917,5/7/2019,221,19,Mission,1999,27,M,H,22,Driving Under Influence,M,23152(A)VC,DRUNK DRIVING ALCOHOL/DRUGS,CANTARA                      ST,WOODMAN                      AV,,34.2196,-118.4319
5620370,5/5/2019,229,10,West Valley,1079,43,M,W,22,Driving Under Influence,M,23152(A)VC,DRUNK DRIVING ALCOHOL/DRUGS,HASKELL                      AV,VENTURA                      FY,,34.157,-118.4749
190112944,5/2/2019,1330,1,Central,158,63,M,B,17,Liquor Laws,M,25620BP,OPEN ALCOHOLIC BEV IN PUBLIC PARK/PLACE,6TH                          ST,CROCKER,,34.0395,-118.2405
5619557,5/4/2019,325,8,West LA,853,62,M,B,22,Driving Under Influence,M,23152(A)VC,DRUNK DRIVING ALCOHOL/DRUGS,SAN DIEGO                    FY,SANTA MONICA                 BL,,34.047,-118.4466
190910390,4/30/2019,910,9,Van Nuys,989,37,M,W,17,Liquor Laws,M,25620BP,OPEN ALCOHOLIC BEV IN PUBLIC PARK/PLACE,13400    MOORPARK                     ST,,,34.1504,-118.4249
191110117,5/6/2019,1645,11,Northeast,1151,51,M,H,18,Drunkeness,M,41.27(C)LAM,DRINKING IN PUBLIC,1500 N  VERMONT                      AV,,,34.0986,-118.2962
190611526,5/8/2019,1800,6,Hollywood,645,52,M,W,17,Liquor Laws,I,25620(A)BP,DRINKING ALCOHOL,SUNSET                       BL,LA BREA,,34.098,-118.3441
190112879,5/3/2019,1715,1,Central,159,24,M,H,17,Liquor Laws,I,25620BP,OPEN ALCOHOLIC BEV IN PUBLIC PARK/PLACE,JESSE,MATEO,,34.0362,-118.2325
5620266,5/4/2019,2223,2,Rampart,299,37,F,W,22,Driving Under Influence,M,23152(A)VC,DRUNK DRIVING ALCOHOL/DRUGS,HARBOR                       FY,SANTA MONICA                 FY,,34.0384,-118.2738
5619587,5/4/2019,239,11,Northeast,1176,19,M,H,22,Driving Under Influence,M,23152(A)VC,DRUNK DRIVING ALCOHOL/DRUGS,SAN DIEGO                    FY,RIVERSIDE                    DR,,34.0904,-118.2345
191412062,5/9/2019,1729,14,Pacific,1441,60,M,B,17,Liquor Laws,I,25620(A)BP,DRINKING ALCOHOL,OCEAN FRONT                  WK,WASHINGTON                   BL,,33.9791,-118.4669
5622546,5/7/2019,2205,17,Devonshire,1798,57,M,B,22,Driving Under Influence,M,23152(A)VC,DRUNK DRIVING ALCOHOL/DRUGS,HASKELL,PARTHENIA,,34.2283,-118.4764
5619439,5/3/2019,2359,9,Van Nuys,926,47,F,H,22,Driving Under Influence,M,23152(A)VC,DRUNK DRIVING ALCOHOL/DRUGS,VICTORY                      BL,HAZELTINE,,34.1867,-118.44
5620719,5/5/2019,1717,16,Foothill,1641,46,M,H,22,Driving Under Influence,M,21200.5VC,DUI ALCOHOL/DRUGS ON BICYCLE,VAN NUYS,OMELVENY,,34.26,-118.4305
5621963,5/7/2019,330,21,Topanga,2185,37,F,O,22,Driving Under Influence,M,23152(A)VC,DRUNK DRIVING ALCOHOL/DRUGS,DUMETZ                       RD,TOPANGA CANYON               BL,,34.1569,-118.6058
191510505,4/24/2019,1020,15,N Hollywood,1547,42,M,H,17,Liquor Laws,I,25620(A)BP,DRINKING ALCOHOL,LAUREL CANYON                BL,CHANDLER                     BL,,34.1673,-118.3816
5620392,5/5/2019,240,7,Wilshire,706,31,M,W,22,Driving Under Influence,M,23152(A)VC,DRUNK DRIVING ALCOHOL/DRUGS,MELROSE                      AV,LA BREA                      AV,,34.0835,-118.3441
190211056,5/8/2019,1420,2,Rampart,245,44,M,H,17,Liquor Laws,I,25620(A)BP,DRINKING ALCOHOL,2200 W  6TH                          ST,,,34.0601,-118.2761
190910506,5/8/2019,215,9,Van Nuys,976,53,M,W,17,Liquor Laws,I,25620(A)BP,DRINKING ALCOHOL,WOODMAN,VALLEY HEART,,34.1536,-118.4259
192010250,5/1/2019,936,20,Olympic,2062,37,M,H,17,Liquor Laws,M,25620BP,OPEN ALCOHOLIC BEV IN PUBLIC PARK/PLACE,MANHATTAN                    PL,OLYMPIC,,34.0527,-118.3101
191709762,5/5/2019,1115,17,Devonshire,1793,32,M,H,17,Liquor Laws,I,25620BP,OPEN ALCOHOLIC BEV IN PUBLIC PARK/PLACE,VANALDEN,PARTHENIA,,34.2283,-118.5492
190611211,5/1/2019,1630,6,Hollywood,645,40,M,H,17,Liquor Laws,I,25620(A)BP,DRINKING ALCOHOL,6800    HOLLYWOOD                    BL,,,34.1016,-118.3387
191709840,5/8/2019,1545,17,Devonshire,1781,45,M,B,17,Liquor Laws,M,25620BP,OPEN ALCOHOLIC BEV IN PUBLIC PARK/PLACE,OSBORNE                      ST,INDEPENDENCE                 AV,,34.2331,-118.5907
5613165,4/28/2019,420,15,N Hollywood,1529,57,M,W,16,Narcotic Drug Laws,F,4573PC,BRING/SEND NARC/CONT SUBS/ALCOHOL TO JAIL,CRANER,VICTORY,,34.1867,-118.3692
190809504,5/7/2019,1944,8,West LA,859,36,M,B,18,Drunkeness,M,41.27CLAMC,DRINKING IN PUBLIC,GUTHRIE,LA CIENEGA,,34.0495,-118.3805
5620334,5/4/2019,2335,14,Pacific,1494,23,F,B,22,Driving Under Influence,M,23152(A)VC,DRUNK DRIVING ALCOHOL/DRUGS,IMPERIAL,CALIFORNIA,,33.942,-118.4095
191110122,5/7/2019,1500,11,Northeast,1177,47,M,H,18,Drunkeness,M,41.27(C)LAM,DRINKING IN PUBLIC,IDELL,AVENUE 26,,34.0865,-118.2253
192010256,5/2/2019,2220,20,Olympic,2029,26,M,H,17,Liquor Laws,M,25620BP,OPEN ALCOHOLIC BEV IN PUBLIC PARK/PLACE,VERMONT,S  3RD                          ST,,34.0691,-118.2917
192109784,5/7/2019,1635,21,Topanga,2136,66,M,H,18,Drunkeness,M,41.27(C)LAM,DRINKING IN PUBLIC,VARIEL                       AV,SHERMAN                      WY,,34.2011,-118.5928
5625803,5/11/2019,234,1,Central,129,20,M,C,22,Driving Under Influence,M,23152(A)VC,DRUNK DRIVING ALCOHOL/DRUGS,ALAMEDA                      ST,ARCADIA                      ST,,34.0511,-118.2336
5623871,5/9/2019,252,8,West LA,853,25,M,W,22,Driving Under Influence,M,23152(A)VC,DRUNK DRIVING ALCOHOL/DRUGS,SAN DIEGO                    FY,SANTA MONICA                 BL,,34.047,-118.4466
5623897,5/9/2019,351,10,West Valley,1079,45,M,H,22,Driving Under Influence,M,23152(A)VC,DRUNK DRIVING ALCOHOL/DRUGS,VENTURA,SAN DIEGO                    FY,,34.1599,-118.4694
5624716,5/9/2019,1939,1,Central,191,40,F,W,16,Narcotic Drug Laws,F,4573PC,BRING/SEND NARC/CONT SUBS/ALCOHOL TO JAIL,SANTA MONICA                 FY,VERMONT,,34.0388,-118.2717
5626081,5/11/2019,520,6,Hollywood,669,28,F,H,22,Driving Under Influence,M,23152(A)VC,DRUNK DRIVING ALCOHOL/DRUGS,KINGSLEY,SANTA MONICA,,34.0908,-118.3025
5625692,5/10/2019,2245,16,Foothill,1611,49,M,H,22,Driving Under Influence,M,23152(A)VC,DRUNK DRIVING ALCOHOL/DRUGS,GLENOAKS,ARROYO,,34.279,-118.4264
5625068,5/10/2019,815,9,Van Nuys,935,21,F,W,22,Driving Under Influence,M,23152(A)VC,DRUNK DRIVING ALCOHOL/DRUGS,14400    ERWIN                        ST,,,34.1837,-118.4465
5623535,5/8/2019,1535,5,Harbor,507,19,M,H,16,Narcotic Drug Laws,F,4573PC,BRING/SEND NARC/CONT SUBS/ALCOHOL TO JAIL,1400 W  225TH                        ST,,,33.8223,-118.3015
5623690,5/8/2019,2202,15,N Hollywood,1517,36,M,W,22,Driving Under Influence,M,23152(A)VC,DRUNK DRIVING ALCOHOL/DRUGS,VANOWEN,ELMER,,34.194,-118.3768
5625661,5/10/2019,2240,5,Harbor,517,51,M,H,22,Driving Under Influence,M,23152(A)VC,DRUNK DRIVING ALCOHOL/DRUGS,E,MARINE,,33.7873,-118.2582
5623599,5/8/2019,1815,19,Mission,1958,24,M,H,22,Driving Under Influence,M,23152(F)VC,DUI OF ANY DRUG,PAXTON,ARLETA,,34.2599,-118.445
5624297,5/9/2019,1430,9,Van Nuys,926,57,M,W,22,Driving Under Influence,M,23152(A)VC,DRUNK DRIVING ALCOHOL/DRUGS,SYLMAR                       AV,VICTORY                      BL,,34.1867,-118.4465
5625708,5/10/2019,2350,19,Mission,1987,27,M,H,22,Driving Under Influence,M,23152(A)VC,DRUNK DRIVING ALCOHOL/DRUGS,CHASE,WOODMAN,,34.2272,-118.4359
5624992,5/10/2019,253,11,Northeast,1123,24,F,H,22,Driving Under Influence,M,23152(A)VC,DRUNK DRIVING ALCOHOL/DRUGS,GOLDEN STATE                 FY,WESTERN                      AV,,34.1207,-118.2641
5624919,5/10/2019,151,14,Pacific,1452,27,M,B,22,Driving Under Influence,M,23152(A)VC,DRUNK DRIVING ALCOHOL/DRUGS,WASHINGTON                   BL,PACIFIC                      AV,,33.9798,-118.4656
5624794,5/9/2019,2315,9,Van Nuys,935,22,M,H,22,Driving Under Influence,M,23152(A)VC,DRUNK DRIVING ALCOHOL/DRUGS,BESSEMER                     ST,HAZELTINE                    AV,,34.1808,-118.44
5624931,5/9/2019,2355,9,Van Nuys,906,24,M,H,22,Driving Under Influence,M,23152(A)VC,DRUNK DRIVING ALCOHOL/DRUGS,LENNOX,VALERIO,,34.2048,-118.4455
5625642,5/10/2019,2148,21,Topanga,2169,29,M,W,22,Driving Under Influence,M,23152(F)VC,DUI OF ANY DRUG,MARTHA                       ST,WINNETKA,,34.173,-118.5709
5623745,5/8/2019,2158,20,Olympic,2074,32,M,H,22,Driving Under Influence,M,23152(A)VC,DRUNK DRIVING ALCOHOL/DRUGS,CAMBRIDE                     ST,ARDMORE                      ST,,34.0437,-118.3029
5624739,5/9/2019,1930,12,77th Street,1267,39,M,H,22,Driving Under Influence,M,23152(A)VC,DRUNK DRIVING ALCOHOL/DRUGS,MANCHESTER,FLORENCE,,33.9622,-118.285
5623891,5/9/2019,333,8,West LA,882,24,F,H,22,Driving Under Influence,M,23152(A)VC,DRUNK DRIVING ALCOHOL/DRUGS,SAN DIEGO                    FY,SUNSET,,34.038,-118.4436
5625818,5/11/2019,245,17,Devonshire,1794,22,M,H,22,Driving Under Influence,M,23152(A)VC,DRUNK DRIVING ALCOHOL/DRUGS,ROSCOE,RESEDA,,34.2207,-118.5361
5625577,5/10/2019,2140,14,Pacific,1409,29,F,O,22,Driving Under Influence,M,23152(A)VC,DRUNK DRIVING ALCOHOL/DRUGS,CULVER,VENICE,,34.0264,-118.3925
5624264,5/9/2019,1330,9,Van Nuys,911,37,M,W,22,Driving Under Influence,M,23152(F)VC,DUI OF ANY DRUG,SHERMAN                      WY,SEPULVEDA                    BL,,34.2012,-118.4662
5624655,5/9/2019,1740,2,Rampart,245,42,M,H,22,Driving Under Influence,M,23152(B)VC,DRUNK DRIVING .10 OR ABOVE,2200 W  6TH                          ST,,,34.0601,-118.2761
5624986,5/10/2019,205,1,Central,191,26,M,H,22,Driving Under Influence,M,23152(A)VC,DRUNK DRIVING ALCOHOL/DRUGS,LA LIVE                      WY,PICO                         BL,,34.0423,-118.2717
5623712,5/8/2019,2102,20,Olympic,2079,37,M,H,22,Driving Under Influence,M,21200.5VC,DUI ALCOHOL/DRUGS ON BICYCLE,PICO                         BL,ELDEN                        AV,,34.0473,-118.2877
